Opportunity Name,Level 2 Government,Bridge Name,Project Code,Stage,Sub-Stage,CaseSafeID,B2P Fiscal Year,latitude,longitude,Individuals Directly Served,Population Estimate 2000m
Rwanda - Kirwa - 1012699,Ruhango,Kirwa,1012699,Identified,Technical,006f100000dhyeVAAQ,2018,-2.22162,29.61977,827,4586
Rwanda - Kajeje - 1022230,Muhanga,Kajeje,1022230,Identified,Requested,0063Z00000hvy75QAA,2022,-1.971735,29.792433,300,
Rwanda - Nyaruhombo - 1009280,Huye,Nyaruhombo,1009280,Complete,In Service,006f100000aWV5fAAG,2023,-2.41201,29.67439,2373,5115
Rwanda - Birambo - 1037670,Gicumbi,Birambo,1037670,Under Construction,,0063Z00000pof1dQAA,2023,-1.58050327,30.13857133,500,
Rwanda - Ruharazi - 1009311,Nyaruguru,Ruharazi,1009311,Complete,In Service,006f100000asEzNAAU,2019,-2.77676167,29.62627167,,7393
Rwanda - Kamegeri - 1009316,Nyamagabe,Kamegeri,1009316,Cancelled,Technical,006f100000asFDPAA2,2018,-2.52444444,29.55333333,,5048
Rwanda - Bukinga - 1009317,Nyaruguru,Bukinga,1009317,Cancelled,Technical,006f100000asFErAAM,2019,-2.760833,29.488056,,5455
Rwanda - Runyombya - 1009313,Nyaruguru,Runyombya,1009313,Identified,Identified in Needs Assessment,006f100000asF27AAE,2019,-2.77142,29.529766,5579,5513
Rwanda - Gihinga - 1009329,Gakenke,Gihinga,1009329,Identified,Local Investment,006f100000asYQDAA2,2019,-1.829439,29.882134,16300,5567
Rwanda - Mataba - 1022231,Muhanga,Mataba,1022231,Identified,Requested,0063Z00000hvy7AQAQ,2021,-1.976608,29.782109,500,
Rwanda - Nyaruvumu - 1007899,Nyanza,Nyaruvumu,1007899,Identified,Technical,006f100000aA0hfAAC,2019,-2.3381,29.6548,3000,3724
Rwanda - Kucyaruseke - RW127,Nyaruguru,Kucyaruseke,RW127,Complete,In Service,006f100000Zs7KqAAJ,2018,-2.711764,29.557267,3000,4923
Rwanda - Ruvumba - 1007621,Rulindo,Ruvumba,1007621,Identified,Vehicular Bridge Required,006f100000a86HZAAY,2019,-1.748844,29.951975,1000,5411
Rwanda - Ngarama - 1007622,Rulindo,Ngarama,1007622,Identified,Vehicular Bridge Required,006f100000a86HaAAI,2019,-1.692446,29.904097,1000,7740
Rwanda - Gasigwe - 1007360,Gakenke,Gasigwe,1007360,Identified,Technical,006f100000a86DMAAY,2018,-1.627777777,29.84055556,1302,7641
Rwanda - Ubumwe - 1007457,Nyagatare,Ubumwe,1007457,Identified,Technical,006f100000a86EvAAI,2019,-1.42439,30.26354,5487,6016
Rwanda - Nshuri - 1007458,Nyagatare,Nshuri,1007458,Identified,Identified in Needs Assessment,006f100000a86EwAAI,2019,-1.308813,30.314539,7453,2287
Rwanda - Kamate - 1007459,Nyagatare,Kamate,1007459,Identified,Technical,006f100000a86ExAAI,2019,-1.2991944,30.2575833,1000,2267
Rwanda - Mirambi - 1007460,Nyagatare,Mirambi,1007460,Identified,Vehicular Bridge Required,006f100000a86EyAAI,2019,-1.296011,30.247121,1000,2322
Rwanda - Gihanga - 1007364,Gicumbi,Gihanga,1007364,Identified,Technical,006f100000a86DQAAY,2018,-1.47241,29.99602,2045,8434
Rwanda - Rubaya - 1007366,Gicumbi,Rubaya,1007366,Identified,Technical,006f100000a86DSAAY,2018,-1.46707,29.99598,4500,8891
Rwanda - Kiyovu center - 1007368,Gicumbi,Kiyovu center,1007368,Identified,Technical,006f100000a86DUAAY,2018,-1.59132,30.01386,1461,9213
Rwanda - Busabira - 1007370,Gicumbi,Busabira,1007370,Identified,,006f100000a86DWAAY,2018,-1.72859,30.07666,,4953
Rwanda - Karangazi - 1007461,Nyagatare,Karangazi,1007461,Identified,,006f100000a86EzAAI,2014,,,500,
Rwanda - Mujerenge - 1007463,Nyamagabe,Mujerenge,1007463,Complete,In Service,006f100000a86F1AAI,2022,-2.45195667,29.427665,995,4330
Rwanda - Gahira - 1007464,Nyamagabe,Gahira,1007464,Identified,Technical,006f100000a86F2AAI,2018,-2.448025,29.4665,2810,6936
Rwanda - Rwangambibi - 1007465,Nyamagabe,Rwangambibi,1007465,Complete,In Service,006f100000a86F3AAI,2022,-2.343056,29.4325,3475,7078
Rwanda - Rugeti - 1007466,Nyamagabe,Rugeti,1007466,Complete,In Service,006f100000a86F4AAI,2020,-2.47640667,29.4208,4363,5050
Rwanda - Mwishyogwe - 1007467,Nyamagabe,Mwishyogwe,1007467,Identified,Technical,006f100000a86F5AAI,2018,-2.484,29.4196111,1000,4483
Rwanda - Nyarusengesi - 1007468,Nyamagabe,Nyarusengesi,1007468,Identified,Technical,006f100000a86F6AAI,2018,-2.287455,29.434438,1000,4064
Rwanda - Remera - 1007469,Nyamagabe,Remera,1007469,Ready to Confirm,,006f100000a86F7AAI,2023,-2.213863,29.563708,2714,3273
Rwanda - Cyabazungo - 1007471,Nyamagabe,Cyabazungo,1007471,Identified,Identified in Needs Assessment,006f100000a86F9AAI,2019,-2.4243,29.5426533,8150,3940
Rwanda - Sabake - 1007472,Nyamagabe,Sabake,1007472,Identified,Identified in Needs Assessment,006f100000a86FAAAY,2018,-2.47291333,29.42335667,4469,5309
Rwanda - Uwabarashi - 1007473,Nyamagabe,Uwabarashi,1007473,Identified,Identified in Needs Assessment,006f100000a86FBAAY,2018,-2.21156,29.544015,,3785
Rwanda - Cyimbogo - 1007474,Nyamagabe,Cyimbogo,1007474,Identified,Technical,006f100000a86FCAAY,2018,-2.2875833,29.4333889,3000,4066
Rwanda - Kinyempanda - 1007678,Rutsiro,Kinyempanda,1007678,Identified,Technical,006f100000a86IUAAY,2019,-2.02475,29.41743,1806,5330
Rwanda - Kazirankomo - 1007679,Rutsiro,Kazirankomo,1007679,Identified,Technical,006f100000a86IVAAY,2018,-1.954166,29.3577,3000,4173
Rwanda - Ntora - 1007680,Gasabo,Ntora,1007680,Identified,Technical,006f100000a86IWAAY,2019,-1.916403,30.04942,6000,32876
Rwanda - Nkurura - 1007372,Gicumbi,Nkurura,1007372,Identified,Technical,006f100000a86DYAAY,2018,-1.48547,29.99506,1400,8564
Rwanda - Karambi - 1007374,Huye,Karambi,1007374,Complete,In Service,006f100000a86DaAAI,2019,-2.513333,29.612778,12500,7425
Rwanda - Buhoro - 1007376,Huye,Buhoro,1007376,Identified,Technical,006f100000a86DcAAI,2019,-2.62627,30.6261,3000,0
Rwanda - Uwarugondo - 1007377,Huye,Uwarugondo,1007377,Identified,Technical,006f100000a86DdAAI,2019,-2.63101,29.63617,3983,5926
Rwanda - Zaga - 1007378,Huye,Zaga,1007378,Identified,Vehicular Bridge Required,006f100000a86DeAAI,2019,-2.60378,29.66448,,3604
Rwanda - Uwimpundu - 1007379,Huye,Uwimpundu,1007379,Identified,Vehicular Bridge Required,006f100000a86DfAAI,2019,-2.62437,30.64553,1505,0
Rwanda - Bukomeye - Taba - 1007380,Huye,Bukomeye - Taba,1007380,Complete,In Service,006f100000a86DgAAI,2023,-2.66052,29.74644,3581,8345
Rwanda - Rujumbura - 1007381,Huye,Rujumbura,1007381,Identified,Technical,006f100000a86DhAAI,2019,-2.68664,29.75706,4744,8532
Rwanda - Ryagashaza - 1007383,Kamonyi,Ryagashaza,1007383,Identified,,006f100000a86DjAAI,2018,-1.971072,29.838172,4975,5174
Rwanda - Kizimyamuriro - 1007475,Nyamagabe,Kizimyamuriro,1007475,Identified,Technical,006f100000a86FDAAY,2014,-2.4869167,29.4160556,3000,3691
Rwanda - Nyamugari - 1007476,Nyamagabe,Nyamugari,1007476,Identified,,006f100000a86FEAAY,2018,-2.4912778,29.4210278,3000,4038
Rwanda - Mugote - 1007477,Nyamagabe,Mugote,1007477,Complete,In Service,006f100000a86FFAAY,2022,-2.4477333,29.41455333,1720,3471
Rwanda - Kabuga - 1007479,Nyamagabe,Kabuga,1007479,Identified,Technical,006f100000a86FHAAY,2018,-2.45674667,29.43966667,3448,5382
Rwanda - Kabingo - 1007480,Nyamagabe,Kabingo,1007480,Identified,Technical,006f100000a86FIAAY,2018,-2.395728,29.427631,2380,9739
Rwanda - Mutiwingoma - 1007481,Nyamagabe,Mutiwingoma,1007481,Complete,In Service,006f100000a86FJAAY,2021,-2.363733,29.55353,2601,3948
Rwanda - Murwa - 1007482,Nyamagabe,Murwa,1007482,Identified,Technical,006f100000a86FKAAY,2018,-2.39084,29.57068,3057,3959
Rwanda - Rwankango - 1007483,Nyamagabe,Rwankango,1007483,Identified,Vehicular Bridge Required,006f100000a86FLAAY,2018,-2.259663,29.592431,1000,4211
Rwanda - Uwamataba - 1007484,Nyamagabe,Uwamataba,1007484,Identified,Technical,006f100000a86FMAAY,2018,-2.47437333,29.488816,3554,6814
Rwanda - Nyarurambi - 1007485,Nyamagabe,Nyarurambi,1007485,Identified,Technical,006f100000a86FNAAY,2018,-2.4724,29.5,3523,0
Rwanda - Rusekera - 1007486,Nyamagabe,Rusekera,1007486,Identified,Technical,006f100000a86FOAAY,2018,-2.451815,29.43508667,780,4628
Rwanda - Shaki - 1007487,Nyamagabe,Shaki,1007487,Identified,Technical,006f100000a86FPAAY,2018,-2.391707,29.435709,1985,8948
Rwanda - Muzirantwago - 1007488,Nyamagabe,Muzirantwago,1007488,Identified,Technical,006f100000a86FQAAY,2018,-2.428413,29.577879,3000,4689
Rwanda - Cyabagomba - 1007489,Nyamagabe,Cyabagomba,1007489,Identified,Technical,006f100000a86FRAAY,2018,-2.296023,29.557358,403,3387
Rwanda - Gasharu - 1007490,Nyamagabe,Gasharu,1007490,Identified,,006f100000a86FSAAY,2018,-2.43993333,29.51594167,3000,4375
Rwanda - Muduha - 1007491,Nyamagabe,Muduha,1007491,Identified,Technical,006f100000a86FTAAY,2018,-2.436162,29.52308,4530,4128
Rwanda - Rugwa - 1007525,Nyanza,Rugwa,1007525,Complete,In Service,006f100000a86G1AAI,2019,-2.329779,29.668688,2015,4171
Rwanda - Kabuga - 1007384,Kamonyi,Kabuga,1007384,Identified,Technical,006f100000a86DkAAI,2019,-1.972033,29.84578,1195,5020
Rwanda - Rusovu - 1007387,Karongi,Rusovu,1007387,Identified,Identified in Needs Assessment,006f100000a86DnAAI,2019,-2.14783,29.535028,10405,5931
Rwanda - Nyirahene - 1007388,Karongi,Nyirahene,1007388,Identified,Technical,006f100000a86DoAAI,2019,-2.14375,29.5181389,6000,6529
Rwanda - Nyakabingo - 1007492,Nyamagabe,Nyakabingo,1007492,Identified,Technical,006f100000a86FUAAY,2018,-2.298329,29.459225,1000,4140
Rwanda - Nyagisumo - 1007493,Nyamagabe,Nyagisumo,1007493,Identified,Technical,006f100000a86FVAAY,2018,-2.337289,29.459825,2244,5214
Rwanda - Nyakabuye - Nkomane - 1007495,Nyamagabe,Nyakabuye - Nkomane,1007495,Complete,In Service,006f100000a86FXAAY,2021,-2.233022,29.57513,2790,3624
Rwanda - Nyamurinda - 1007496,Nyamagabe,Nyamurinda,1007496,Identified,Technical,006f100000a86FYAAY,2018,-2.43885,29.56909,1050,5425
Rwanda - Murehe - 1007497,Nyamagabe,Murehe,1007497,Ready to Confirm,,006f100000a86FZAAY,2023,-2.265518,29.585978,2383,4208
Rwanda - Gasagara - 1007498,Nyamagabe,Gasagara,1007498,Identified,Vehicular Bridge Required,006f100000a86FaAAI,2018,-2.286972,29.607523,500,4387
Rwanda - Kibiraro - 1007499,Nyamagabe,Kibiraro,1007499,Complete,In Service,006f100000a86FbAAI,2022,-2.294167,29.555224,2492,3350
Rwanda - Macigati - 1007527,Nyanza,Macigati,1007527,Identified,Technical,006f100000a86G3AAI,2018,-2.30422,29.65685,456,4440
Rwanda - Cyarera - 1007528,Nyanza,Cyarera,1007528,Complete,In Service,006f100000a86G4AAI,2023,-2.29248,29.61608,1967,4472
Rwanda - Gatare - 1007530,Nyarugenge,Gatare,1007530,Complete,In Service,006f100000a86G6AAI,2019,-1.94142,30.034608,2704,59847
Rwanda - Kumagare - 1007531,Gasabo,Kumagare,1007531,Identified,Technical,006f100000a86G7AAI,2019,-1.935831,30.051385,48588,138047
Rwanda - Uwinteko - 1007532,Nyaruguru,Uwinteko,1007532,Identified,Technical,006f100000a86G8AAI,2019,-2.761531,29.494368,4221,4532
Rwanda - Cyivugiza - 1007534,Nyaruguru,Cyivugiza,1007534,Identified,Technical,006f100000a86GAAAY,2019,-2.7791667,29.464333,3000,5036
Rwanda - Rukarakara - 1007535,Nyaruguru,Rukarakara,1007535,Complete,In Service,006f100000a86GBAAY,2019,-2.7761,29.464528,11283,5470
Rwanda - Bihembe - 1007536,Nyaruguru,Bihembe,1007536,Identified,Technical,006f100000a86GCAAY,2019,-2.69544,29.45618,6394,5225
Rwanda - Nyacyondo - 1007537,Nyaruguru,Nyacyondo,1007537,Identified,Local Investment,006f100000a86GDAAY,2019,-2.62023,29.542442,4109,2403
Rwanda - Nyabimata - 1007538,Nyaruguru,Nyabimata,1007538,Identified,Identified in Needs Assessment,006f100000a86GEAAY,2019,-2.69445,29.45532,6365,5405
Rwanda - Kabere - 1007539,Nyaruguru,Kabere,1007539,Complete,In Service,006f100000a86GFAAY,2019,-2.697944,29.446917,6335,5411
Rwanda - Gihango - 1007540,Nyaruguru,Gihango,1007540,Identified,Technical,006f100000a86GGAAY,2019,-2.67791,29.59175,4446,4019
Rwanda - Cyuna - 1007541,Nyaruguru,Cyuna,1007541,Identified,Technical,006f100000a86GHAAY,2019,-2.706995,29.59134667,5829,5346
Rwanda - Gakaranka - 1007542,Nyaruguru,Gakaranka,1007542,Identified,Technical,006f100000a86GIAAY,2019,-2.77593,29.4562,4842,5023
Rwanda - Kirwa - 1007543,Nyaruguru,Kirwa,1007543,Identified,Technical,006f100000a86GJAAY,2019,-2.798933,29.4761,4563,3482
Rwanda - Runyani - 1007544,Nyaruguru,Runyani,1007544,Complete,In Service,006f100000a86GKAAY,2020,-2.71578,29.67607,5421,4164
Rwanda - Samiyonge - 1007545,Nyaruguru,Samiyonge,1007545,Identified,Technical,006f100000a86GLAAY,2019,-2.67962,29.46244,6119,7065
Rwanda - Rugogo - 1007389,Karongi,Rugogo,1007389,Identified,Technical,006f100000a86DpAAI,2019,-2.207465,29.4401,6195,3495
Rwanda - Kurusumo - 1007390,Karongi,Kurusumo,1007390,Identified,Technical,006f100000a86DqAAI,2014,-2.16372,29.35439,13740,4833
Rwanda - Urwishinzo - 1007546,Nyaruguru,Urwishinzo,1007546,Identified,Vehicular Bridge Required,006f100000a86GMAAY,2019,-2.7803056,29.4508056,500,4350
Rwanda - Karanka - 1007547,Nyaruguru,Karanka,1007547,Identified,Technical,006f100000a86GNAAY,2019,-2.66297667,29.44955667,3443,7835
Rwanda - Migendo - 1007548,Nyaruguru,Migendo,1007548,Identified,Identified in Needs Assessment,006f100000a86GOAAY,2019,-2.667,29.4581,3711,7263
Rwanda - Kanyarusanga 1 - 1007391,Karongi,Kanyarusanga 1,1007391,Confirmed,,006f100000a86DrAAI,2023,-2.154294,29.3575,5748,9476
Rwanda - Kinjongo - 1007392,Karongi,Kinjongo,1007392,Identified,Technical,006f100000a86DsAAI,2019,-2.14811,29.52184,3000,6414
Rwanda - Gasarabwayi - 1007393,Kayonza,Gasarabwayi,1007393,Identified,Technical,006f100000a86DtAAI,2019,-1.90503,30.60191,4255,3384
Rwanda - Gahushyi - 1007394,Kayonza,Gahushyi,1007394,Identified,Technical,006f100000a86DuAAI,2019,-1.97849,30.58137,2451,3233
Rwanda - Akayebe - 1007395,Kayonza,Akayebe,1007395,Identified,Technical,006f100000a86DvAAI,2019,-1.92998,30.60766,1907,3648
Rwanda - Mutembo - 1007396,Kayonza,Mutembo,1007396,Identified,Technical,006f100000a86DwAAI,2019,-1.96784,30.58284,1799,3041
Rwanda - Kabakungu - 1007397,Muhanga,Kabakungu,1007397,Identified,Technical,006f100000a86DxAAI,2018,-1.8106111,29.7573333,4609,5288
Rwanda - Rutongo - 1007398,Muhanga,Rutongo,1007398,Identified,Technical,006f100000a86DyAAI,2018,-1.9643,29.76213,2010,4489
Rwanda - Kurugomero - 1007399,Muhanga,Kurugomero,1007399,Identified,Technical,006f100000a86DzAAI,2018,-1.81295875,29.77787873,4427,5053
Rwanda - Karama - 1007400,Muhanga,Karama,1007400,Complete,In Service,006f100000a86E0AAI,2021,-2.07322294,29.71500053,1820,5844
Rwanda - Mataba - 1007401,Muhanga,Mataba,1007401,Identified,,006f100000a86E1AAI,2014,-1.9014444,29.7639167,1000,4867
Rwanda - Matsinsi - 1007402,Muhanga,Matsinsi,1007402,Identified,Technical,006f100000a86E2AAI,2018,-2.14494,29.77813,3000,7557
Rwanda - Kumukenke - 1007403,Muhanga,Kumukenke,1007403,Identified,Technical,006f100000a86E3AAI,2019,-2.076671,29.716686,500,5902
Rwanda - Kabuga - 1007404,Gakenke,Kabuga,1007404,Identified,,006f100000a86E4AAI,2018,-1.750277,29.745,1950,4464
Rwanda - Bitare - 1007549,Nyaruguru,Bitare,1007549,Identified,Technical,006f100000a86GPAAY,2019,-2.68734,29.65577,500,4566
Rwanda - Sheke - 1007550,Nyaruguru,Sheke,1007550,Identified,Technical,006f100000a86GQAAY,2019,-2.67224,29.65063,4755,4896
Rwanda - Remera - 1007551,Nyaruguru,Remera,1007551,Identified,Technical,006f100000a86GRAAY,2019,-2.70332833,29.58839667,4398,5412
Rwanda - Coko - 1007552,Nyaruguru,Coko,1007552,Identified,Technical,006f100000a86GSAAY,2019,-2.713945,29.594535,4586,0
Rwanda - Gitara - 1007553,Nyaruguru,Gitara,1007553,Identified,Technical,006f100000a86GTAAY,2019,-2.71768,29.59726333,5406,5021
Rwanda - Gitara - 1007554,Nyaruguru,Gitara,1007554,Identified,Technical,006f100000a86GUAAY,2019,-2.721561,29.596655,5406,4882
Rwanda - Rwishwa - 1007555,Nyaruguru,Rwishwa,1007555,Identified,Technical,006f100000a86GVAAY,2019,-2.651346,29.43843,2757,5597
Rwanda - Munanira - 1007556,Nyaruguru,Munanira,1007556,Prospecting,,006f100000a86GWAAY,2023,-2.735612,29.566853,1137,3672
Rwanda - Murambi - 1007557,Nyaruguru,Murambi,1007557,Identified,Identified in Needs Assessment,006f100000a86GXAAY,2019,-2.68572,29.47124,4382,5401
Rwanda - Uwamuhizi - 1007558,Nyaruguru,Uwamuhizi,1007558,Identified,Local Investment,006f100000a86GYAAY,2019,-2.71525,29.5959167,500,5137
Rwanda - Ngarurira - 1007559,Nyaruguru,Ngarurira,1007559,Identified,Technical,006f100000a86GZAAY,2019,-2.6965833,29.5401111,4515,3093
Rwanda - Uwumusebeya - 1007560,Nyaruguru,Uwumusebeya,1007560,Identified,Technical,006f100000a86GaAAI,2019,-2.7785278,29.44775,1000,4202
Rwanda - Mutovu - 1007561,Nyaruguru,Mutovu,1007561,Identified,Technical,006f100000a86GbAAI,2019,-2.6860833,29.4780833,3000,4499
Rwanda - Nyagisenyi - 1007562,Nyaruguru,Nyagisenyi,1007562,Identified,Identified in Needs Assessment,006f100000a86GcAAI,2019,-2.654561,29.439786,2757,6021
Rwanda - Agatare - 1007563,Nyaruguru,Agatare,1007563,Complete,In Service,006f100000a86GdAAI,2020,-2.69808,29.54557,4515,3523
Rwanda - Businde - 1007564,Nyaruguru,Businde,1007564,Identified,Vehicular Bridge Required,006f100000a86GeAAI,2019,-2.6974722,29.4909444,1000,4139
Rwanda - Agasaka - 1007565,Nyaruguru,Agasaka,1007565,Identified,Technical,006f100000a86GfAAI,2019,-2.77066667,29.66886,3000,5875
Rwanda - Mutobwe - 1007566,Nyaruguru,Mutobwe,1007566,Identified,Technical,006f100000a86GgAAI,2019,-2.69631,29.43436,2187,5230
Rwanda - Kasemanyana - 1007500,Nyamagabe,Kasemanyana,1007500,Identified,Technical,006f100000a86FcAAI,2018,-2.312785,29.559739,2628,2927
Rwanda - Rusave - 1007502,Nyamagabe,Rusave,1007502,Identified,Technical,006f100000a86FeAAI,2018,-2.321754,29.44854,1000,5180
Rwanda - Rwumba - 1007503,Nyamagabe,Rwumba,1007503,Identified,Vehicular Bridge Required,006f100000a86FfAAI,2019,-2.32834,29.44182,500,6076
Rwanda - Gitega - 1007505,Nyamagabe,Gitega,1007505,Identified,Technical,006f100000a86FhAAI,2018,-2.280226,29.603769,1000,4462
Rwanda - Uwarukara - 1007506,Nyanza,Uwarukara,1007506,Complete,In Service,006f100000a86FiAAI,2019,-2.308722,29.604778,7000,3922
Rwanda - Nyakabuye - Mwogo - 1007507,Nyamagabe,Nyakabuye - Mwogo,1007507,Complete,In Service,006f100000a86FjAAI,2021,-2.233278,29.576407,2725,3622
Rwanda - Rugote - 1007568,Nyaruguru,Rugote,1007568,Identified,Vehicular Bridge Required,006f100000a86GiAAI,2019,-2.7800833,29.451,1000,4392
Rwanda - Mutovu - 1007569,Nyaruguru,Mutovu,1007569,Complete,Out of Service,006f100000a86GjAAI,2018,-2.682306,29.481194,6000,
Rwanda - Gasugi - 1007570,Nyaruguru,Gasugi,1007570,Prospecting,,006f100000a86GkAAI,2024,-2.69743,29.43339,5413,5064
Rwanda - Gituramigina - 1007571,Nyaruguru,Gituramigina,1007571,Identified,Technical,006f100000a86GlAAI,2019,-2.7438056,29.6708056,3870,5725
Rwanda - Gisoro - 1007572,Nyaruguru,Gisoro,1007572,Complete,In Service,006f100000a86GmAAI,2020,-2.7891,29.56721,17400,4399
Rwanda - Tugogo - 1007573,Nyaruguru,Tugogo,1007573,Identified,Technical,006f100000a86GnAAI,2019,-2.56058,29.49439,3885,5411
Rwanda - Uwurusugi - 1007574,Nyaruguru,Uwurusugi,1007574,Identified,Technical,006f100000a86GoAAI,2019,-2.70144,29.43844,3900,4823
Rwanda - Ryarugarama - 1007575,Nyaruguru,Ryarugarama,1007575,Identified,Vehicular Bridge Required,006f100000a86GpAAI,2019,-2.7814444,29.6633611,500,4523
Rwanda - Rusuzumiro - 1007577,Nyaruguru,Rusuzumiro,1007577,Identified,Technical,006f100000a86GrAAI,2019,-2.6483056,29.4811389,500,2666
Rwanda - Rimbamya - 1007578,Nyaruguru,Rimbamya,1007578,Identified,Vehicular Bridge Required,006f100000a86GsAAI,2019,-2.6378056,29.5095,500,2346
Rwanda - Bisheke - 1007508,Nyamasheke,Bisheke,1007508,Identified,Technical,006f100000a86FkAAI,2019,-2.280762,29.206295,2338,8112
Rwanda - Gitwa~Nyagacaca - 1007509,Nyamasheke,Gitwa~Nyagacaca,1007509,Identified,Technical,006f100000a86FlAAI,2019,-2.275825,29.217288,2225,9016
Rwanda - Businde - 1007579,Nyaruguru,Businde,1007579,Identified,Technical,006f100000a86GtAAI,2019,-2.636655,29.47937167,5323,3781
Rwanda - Ryakanyamiganda - 1007580,Nyaruguru,Ryakanyamiganda,1007580,Complete,In Service,006f100000a86GuAAI,2020,-2.79415,29.6986,4295,5261
Rwanda - Rubindi - 1007409,Musanze,Rubindi,1007409,Identified,,006f100000a86E9AAI,2014,-1.5931667,29.6469167,6000,8006
Rwanda - Nyagafunzo - 1007515,Nyamasheke,Nyagafunzo,1007515,Prospecting,,006f100000a86FrAAI,2023,-2.19761,29.277965,2995,7560
Rwanda - Musumba~ Rugano - 1007518,Nyamasheke,Musumba~ Rugano,1007518,Identified,Technical,006f100000a86FuAAI,2019,-2.313353,29.214397,2237,9475
Rwanda - Kubisheke - 1007520,Nyamasheke,Kubisheke,1007520,Identified,Technical,006f100000a86FwAAI,2019,-2.282545,29.208913,2118,8185
Rwanda - Karamba - 1007521,Nyamasheke,Karamba,1007521,Identified,Technical,006f100000a86FxAAI,2019,-2.284299,29.196849,3433,7347
Rwanda - Ruyenzi - 1007582,Nyaruguru,Ruyenzi,1007582,Prospecting,,006f100000a86GwAAI,2024,-2.755722,29.454917,4903,7036
Rwanda - Akatera - 1007583,Nyaruguru,Akatera,1007583,Identified,Technical,006f100000a86GxAAI,2019,-2.71667,29.73864,5328,6524
Rwanda - Mashetsa - 1007584,Nyaruguru,Mashetsa,1007584,Identified,Technical,006f100000a86GyAAI,2019,-2.614243,29.571836,4070,2098
Rwanda - Gikana - 1007327,Bugesera,Gikana,1007327,Identified,Technical,006f100000a86CpAAI,2019,-2.072628,30.204381,1610,2374
Rwanda - Karambi - 1007410,Musanze,Karambi,1007410,Identified,Vehicular Bridge Required,006f100000a86EAAAY,2014,-1.5738611,29.6502222,6000,8238
Rwanda - Kukasedurugu - 1007412,Musanze,Kukasedurugu,1007412,Confirmed,,006f100000a86ECAAY,2023,-1.536111111,29.67916667,1600,10857
Rwanda - Sovu - 1007414,Ngoma,Sovu,1007414,Identified,Technical,006f100000a86EEAAY,2019,-2.253768,30.378498,500,3914
Rwanda - Shyirinyota - 1007415,Ngoma,Shyirinyota,1007415,Identified,Technical,006f100000a86EFAAY,2019,-2.228352,30.335798,500,2718
Rwanda - Vunga - 1007416,Ngoma,Vunga,1007416,Identified,Technical,006f100000a86EGAAY,2019,-2.274806,30.43525,500,2261
Rwanda - Bare - 1007417,Ngoma,Bare,1007417,Identified,Technical,006f100000a86EHAAY,2019,-2.16867,30.26261,12348,1540
Rwanda - Kabyaza - 1007419,Ngororero,Kabyaza,1007419,Identified,Technical,006f100000a86EJAAY,2018,-1.82084,29.54068,0,7506
Rwanda - Mubarama - 1007420,Ngororero,Mubarama,1007420,Identified,Technical,006f100000a86EKAAY,2019,-1.91351,29.57821,12804,5630
Rwanda - Mweya - 1007522,Nyanza,Mweya,1007522,Identified,Technical,006f100000a86FyAAI,2024,-2.32999,29.64216,2992,3502
Rwanda - Nyankunamirwa - 1007523,Nyanza,Nyankunamirwa,1007523,Identified,Technical,006f100000a86FzAAI,2018,-2.28014,29.72578,1801,4924
Rwanda - Mwurire-gatoki - 1007670,Rutsiro,Mwurire-gatoki,1007670,Identified,Identified in Needs Assessment,006f100000a86IMAAY,2019,-1.89155,29.38262,1539,11692
Rwanda - Rutanzogera - 1007672,Rutsiro,Rutanzogera,1007672,Under Construction,,006f100000a86IOAAY,2023,-1.957,29.531833,3437,5621
Rwanda - Murunda - 1007673,Rutsiro,Murunda,1007673,Identified,Identified in Needs Assessment,006f100000a86IPAAY,2018,-1.915,29.37083,3200,8925
Rwanda - Kibara - 1007674,Rutsiro,Kibara,1007674,Identified,Technical,006f100000a86IQAAY,2019,-1.92899,29.4801,1750,5359
Rwanda - Gatomvu - 1007676,Rutsiro,Gatomvu,1007676,Identified,Requested,006f100000a86ISAAY,2018,-1.96638,29.35777,1250,4952
Rwanda - Muyira - 1007589,Nyaruguru,Muyira,1007589,Identified,Technical,006f100000a86H3AAI,2019,-2.7211111,29.4486389,1746,4807
Rwanda - Ruganza - 1007590,Nyaruguru,Ruganza,1007590,Complete,In Service,006f100000a86H4AAI,2020,-2.63522167,29.45740167,2183,4659
Rwanda - Cyumuzi - 1007591,Nyaruguru,Cyumuzi,1007591,Identified,Vehicular Bridge Required,006f100000a86H5AAI,2019,-2.69811,29.42603,1000,4445
Rwanda - Ndatemwa - 1007592,Nyaruguru,Ndatemwa,1007592,Identified,Technical,006f100000a86H6AAI,2019,-2.78607,29.53833,5061,5505
Rwanda - Kintare - 1007593,Nyaruguru,Kintare,1007593,Prospecting,,006f100000a86H7AAI,2024,-2.633202,29.454371,4382,4785
Rwanda - Cyankongi - 1007328,Kicukiro,Cyankongi,1007328,Identified,Technical,006f100000a86CqAAI,2019,-2.048451,30.191276,5800,2836
Rwanda - Mbabe - 1007329,Kicukiro,Mbabe,1007329,Identified,Technical,006f100000a86CrAAI,2019,-2.028061,30.173231,,2371
Rwanda - Rusheshe - 1007330,Kicukiro,Rusheshe,1007330,Identified,Technical,006f100000a86CsAAI,2019,-2.038712,30.186428,5800,3235
Rwanda - Nyamigende - 1007331,Bugesera,Nyamigende,1007331,Identified,,006f100000a86CtAAI,2019,-2.095311,30.245678,6000,2731
Rwanda - Bugambo - 1007332,Burera,Bugambo,1007332,Identified,Technical,006f100000a86CuAAI,2019,-1.377,29.80729,1892,8263
Rwanda - Gakomo - 1007422,Ngororero,Gakomo,1007422,Identified,Technical,006f100000a86EMAAY,2018,-1.93935456,29.63153625,6000,8019
Rwanda - Bushoka - 1007423,Ngororero,Bushoka,1007423,Complete,In Service,006f100000a86ENAAY,2021,-1.801579,29.645831,1500,5866
Rwanda - Murambi - 1007424,Ngororero,Murambi,1007424,Complete,In Service,006f100000a86EOAAY,2022,-1.856167,29.622611,1000,8467
Rwanda - Muhembe - 1007425,Ngororero,Muhembe,1007425,Complete,In Service,006f100000a86EPAAY,2021,-1.82487,29.61382,2102,8027
Rwanda - Mucyabahinja - 1007426,Ngororero,Mucyabahinja,1007426,Complete,In Service,006f100000a86EQAAY,2022,-1.819809,29.6066111,3587,8502
Rwanda - Munyegera - 1007427,Ngororero,Munyegera,1007427,Identified,Technical,006f100000a86ERAAY,2018,-1.82273,29.58247,4325,7637
Rwanda - Kirombozi - 1007428,Ngororero,Kirombozi,1007428,Identified,Technical,006f100000a86ESAAY,2019,-1.929636,29.799125,500,5128
Rwanda - Kwa Agnes - 1007429,Ngororero,Kwa Agnes,1007429,Identified,Technical,006f100000a86ETAAY,2019,-1.9264167,29.5062222,500,5109
Rwanda - Kamasiga - 1007430,Ngororero,Kamasiga,1007430,Identified,Technical,006f100000a86EUAAY,2018,-1.92789109,29.63116618,3400,8735
Rwanda - Kigufi - 1007431,Ngororero,Kigufi,1007431,Identified,Vehicular Bridge Required,006f100000a86EVAAY,2019,-1.8153056,29.578056,500,7560
Rwanda - Kazabe - 1007432,Ngororero,Kazabe,1007432,Identified,Technical,006f100000a86EWAAY,2018,-1.85795617,29.62374517,2100,8321
Rwanda - Kibirira - 1007433,Ngororero,Kibirira,1007433,Identified,Technical,006f100000a86EXAAY,2018,-1.9307222,29.6403611,500,7740
Rwanda - Base - 1007625,Rulindo,Base,1007625,Identified,Vehicular Bridge Required,006f100000a86HdAAI,2014,-1.6404167,29.8977778,3000,7666
Rwanda - Nyirangarama - 1007626,Rulindo,Nyirangarama,1007626,Identified,Technical,006f100000a86HeAAI,2018,-1.66889,29.89389,1800,7539
Rwanda - Kabahama - 1007628,Rulindo,Kabahama,1007628,Identified,Vehicular Bridge Required,006f100000a86HgAAI,2019,-1.6306667,29.8939167,3000,7661
Rwanda - Cyiri - 1007629,Rulindo,Cyiri,1007629,Identified,Identified in Needs Assessment,006f100000a86HhAAI,2018,-1.68333,29.89917,800,7992
Rwanda - Nyarurama - 1007630,Rulindo,Nyarurama,1007630,Prospecting,,006f100000a86HiAAI,2023,-1.754738,30.084552,2556,5703
Rwanda - Gatwa - 1007631,Rulindo,Gatwa,1007631,Identified,Technical,006f100000a86HjAAI,2018,-1.65237,29.9201,2509,8000
Rwanda - Musega - 1007632,Rulindo,Musega,1007632,Identified,Vehicular Bridge Required,006f100000a86HkAAI,2014,-1.8023333,30.0800278,3000,6116
Rwanda - Karambi - 1007334,Burera,Karambi,1007334,Identified,Vehicular Bridge Required,006f100000a86CwAAI,2019,-1.39214,29.81063,1573,8366
Rwanda - Musangabo - 1007335,Burera,Musangabo,1007335,Identified,Vehicular Bridge Required,006f100000a86CxAAI,2019,-1.38223,29.77727,1253,8284
Rwanda - Rugezi - 1007336,Burera,Rugezi,1007336,Identified,Technical,006f100000a86CyAAI,2019,-1.48563,29.88871,432,4497
Rwanda - Mazimeru - 1007338,Gakenke,Mazimeru,1007338,Identified,Technical,006f100000a86D0AAI,2018,-1.690555556,29.81666667,1940,6380
Rwanda - Kwabarihuta - 1007339,Gakenke,Kwabarihuta,1007339,Identified,Technical,006f100000a86D1AAI,2018,-1.698333333,29.79861111,3500,6434
Rwanda - Gitwa - 1007340,Gakenke,Gitwa,1007340,Complete,In Service,006f100000a86D2AAI,2021,-1.738888,29.755277,2860,4834
Rwanda - G.s Mugunga - 1007342,Gakenke,G.s Mugunga,1007342,Confirmed,,006f100000a86D4AAI,2023,-1.693888889,29.64861111,1610,9313
Rwanda - Mugari - 1007343,Gakenke,Mugari,1007343,Identified,Technical,006f100000a86D5AAI,2018,-1.603205,29.719441,970,8252
Rwanda - Kabarashi - 1007344,Gakenke,Kabarashi,1007344,Identified,Technical,006f100000a86D6AAI,2018,-1.694722222,29.79777778,3600,6469
Rwanda - Rutenga - 1007345,Gakenke,Rutenga,1007345,Identified,Technical,006f100000a86D7AAI,2018,-1.623888889,29.71166667,1926,8680
Rwanda - Ntaruka - 1007347,Gakenke,Ntaruka,1007347,Complete,In Service,006f100000a86D9AAI,2021,-1.781111111,29.87916667,1600,5534
Rwanda - Nyarutovu - 1007348,Gakenke,Nyarutovu,1007348,Identified,Technical,006f100000a86DAAAY,2018,-1.688888888,29.66805556,1589,9361
Rwanda - Mugunga - 1007349,Gakenke,Mugunga,1007349,Identified,Technical,006f100000a86DBAAY,2018,-1.623611111,29.70305556,664,8435
Rwanda - Gitongo - 1007350,Gakenke,Gitongo,1007350,Identified,Technical,006f100000a86DCAAY,2018,-1.704166667,29.84666667,1200,5738
Rwanda - Kagarama - 1007325,Nyamasheke,Kagarama,1007325,Complete,In Service,006f100000a82QzAAI,2018,-2.322534,29.141944,4000,10333
Rwanda - Gashushura - 1007633,Rulindo,Gashushura,1007633,Identified,Technical,006f100000a86HlAAI,2018,-1.61306,29.88583,1050,8312
Rwanda - Kamuragi - 1007634,Rulindo,Kamuragi,1007634,Identified,Technical,006f100000a86HmAAI,2018,-1.74278,29.94694,1260,5699
Rwanda - Ruhinga - 1007594,Nyaruguru,Ruhinga,1007594,Identified,Vehicular Bridge Required,006f100000a86H8AAI,2019,-2.69618,29.42616,1000,4527
Rwanda - Muyira - 1007595,Nyaruguru,Muyira,1007595,Identified,Technical,006f100000a86H9AAI,2019,-2.7221,29.43916,3000,3797
Rwanda - Gaseso - 1007597,Nyaruguru,Gaseso,1007597,Identified,Technical,006f100000a86HBAAY,2019,-2.62936,29.4521944,555,4805
Rwanda - Sheke - 1007598,Nyaruguru,Sheke,1007598,Identified,Technical,006f100000a86HCAAY,2019,-2.68053167,29.51431667,3000,1779
Rwanda - Bugizi - 1007599,Nyaruguru,Bugizi,1007599,Identified,Identified in Needs Assessment,006f100000a86HDAAY,2019,-2.53305556,29.53638889,4789,4366
Rwanda - Gashasho - 1007600,Rubavu,Gashasho,1007600,Complete,In Service,006f100000a86HEAAY,2023,-1.71333,29.3925,1013,7461
Rwanda - Mucyondo - 1007601,Rubavu,Mucyondo,1007601,Identified,Technical,006f100000a86HFAAY,2019,-1.70902,29.35808,65160,16607
Rwanda - Rwanzuki - 1007602,Rubavu,Rwanzuki,1007602,Identified,Technical,006f100000a86HGAAY,2014,-1.7210833,29.3209167,500,10576
Rwanda - Gasenyi - 1007603,Rubavu,Gasenyi,1007603,Identified,Technical,006f100000a86HHAAY,2018,-1.699166,29.336944,1732,18934
Rwanda - Muriba - 1007604,Rubavu,Muriba,1007604,Identified,Technical,006f100000a86HIAAY,2023,-1.7091666,29.3777,800,9399
Rwanda - Ruraje - 1007605,Rubavu,Ruraje,1007605,Identified,Requested,006f100000a86HJAAY,2018,-1.70833,29.379722,700,8965
Rwanda - Kidandari - 1007437,Nyabihu,Kidandari,1007437,Identified,Technical,006f100000a86EbAAI,2019,-1.6695278,29.5934722,3000,7943
Rwanda - Mukamira - 1007439,Nyabihu,Mukamira,1007439,Under Construction,,006f100000a86EdAAI,2023,-1.6198,29.50244,3006,12381
Rwanda - Gatovu - 1007441,Nyabihu,Gatovu,1007441,Identified,Technical,006f100000a86EfAAI,2018,-1.6911944,29.5574167,3065,8977
Rwanda - Gasaso - 1007442,Nyabihu,Gasaso,1007442,Identified,,006f100000a86EgAAI,2018,-1.6331111,29.4766111,3000,12762
Rwanda - Kamiro - 1007444,Nyabihu,Kamiro,1007444,Complete,In Service,006f100000a86EiAAI,2022,-1.681,29.50024,3805,9458
Rwanda - Gisiza - 1007635,Rulindo,Gisiza,1007635,Complete,In Service,006f100000a86HnAAI,2022,-1.76842,30.06324,6898,7859
Rwanda - Cyivugiza - 1007636,Rulindo,Cyivugiza,1007636,Identified,Identified in Needs Assessment,006f100000a86HoAAI,2018,-1.80183,30.07574,3989,6787
Rwanda - Gihinga - 1007637,Rulindo,Gihinga,1007637,Prospecting,,006f100000a86HpAAI,2023,-1.75328,30.01969,,5625
Rwanda - Gitaba - 1007638,Rulindo,Gitaba,1007638,Identified,Vehicular Bridge Required,006f100000a86HqAAI,2014,-1.7067778,29.9143611,1000,7313
Rwanda - Rutonde - 1007639,Rulindo,Rutonde,1007639,Identified,Technical,006f100000a86HrAAI,2018,-1.8128056,29.9603333,1000,4423
Rwanda - Kirambo - 1007642,Rulindo,Kirambo,1007642,Identified,Requested,006f100000a86HuAAI,2018,-1.75152,30.00904,1100,5264
Rwanda - Buhunde - 1007643,Rulindo,Buhunde,1007643,Identified,Vehicular Bridge Required,006f100000a86HvAAI,2018,-1.653,29.9257778,1000,7912
Rwanda - Rukoma - 1007645,Rulindo,Rukoma,1007645,Identified,Technical,006f100000a86HxAAI,2018,-1.79476,29.98846,2624,4592
Rwanda - Sakara - 1007646,Rulindo,Sakara,1007646,Identified,Technical,006f100000a86HyAAI,2018,-1.8036389,29.9891944,1000,4707
Rwanda - Mitabi - 1007647,Rulindo,Mitabi,1007647,Prospecting,,006f100000a86HzAAI,2023,-1.74817,30.03081,2832,5756
Rwanda - Buraro - 1007648,Rulindo,Buraro,1007648,Identified,Local Investment,006f100000a86I0AAI,2018,-1.7658889,29.96425,1000,5083
Rwanda - Gitovu - 1007649,Rulindo,Gitovu,1007649,Complete,In Service,006f100000a86I1AAI,2023,-1.622647,29.890423,2155,7861
Rwanda - Gipfundo - 1007651,Rulindo,Gipfundo,1007651,Identified,,006f100000a86I3AAI,2022,-1.720313,30.081412,1700,4818
Rwanda - Nyungwe - 1007652,Gasabo,Nyungwe,1007652,Identified,Technical,006f100000a86I4AAI,2019,-1.857823,29.992177,3402,7307
Rwanda - Kiziranyenzi - 1007653,Gasabo,Kiziranyenzi,1007653,Identified,Technical,006f100000a86I5AAI,2019,-1.848168,29.991187,5983,6854
Rwanda - Pindura - 1007654,Rusizi,Pindura,1007654,Identified,Technical,006f100000a86I6AAI,2019,-2.594639,28.981427,3802,9929
Rwanda - Nyamigina 2 - 1007606,Ruhango,Nyamigina 2,1007606,Identified,Technical,006f100000a86HKAAY,2019,-2.17262,30.6741,2436,2094
Rwanda - Nyangandika - 1007607,Ruhango,Nyangandika,1007607,Identified,Technical,006f100000a86HLAAY,2018,-2.18495,29.80927,1067,6206
Rwanda - Gasyogogo - 1007609,Ruhango,Gasyogogo,1007609,Complete,In Service,006f100000a86HNAAY,2019,-2.161944,29.665556,2685,6089
Rwanda - Gitaraga 1 - 1007610,Ruhango,Gitaraga 1,1007610,Identified,,006f100000a86HOAAY,2014,-2.1201667,29.6892222,1000,4940
Rwanda - Kinoko - 1007352,Gakenke,Kinoko,1007352,Identified,Technical,006f100000a86DEAAY,2018,-1.699722222,29.69666667,1000,6630
Rwanda - Karuhunge - 1007354,Gakenke,Karuhunge,1007354,Identified,Technical,006f100000a86DGAAY,2018,-1.6025,29.70666,2250,9071
Rwanda - Buranga - 1007356,Gakenke,Buranga,1007356,Identified,Technical,006f100000a86DIAAY,2018,-1.639722,29.784722,2958,9679
Rwanda - Cyangoga - 1007357,Gakenke,Cyangoga,1007357,Identified,Technical,006f100000a86DJAAY,2018,-1.619444444,29.63333333,1230,9313
Rwanda - Nama - 1007449,Nyabihu,Nama,1007449,Identified,Technical,006f100000a86EnAAI,2018,-1.6798,29.51732,850,11348
Rwanda - Nyamutukura - 1007450,Nyabihu,Nyamutukura,1007450,Identified,Technical,006f100000a86EoAAI,2018,-1.61806,29.47252,1610,14212
Rwanda - Kinoni - 1007451,Nyabihu,Kinoni,1007451,Identified,Technical,006f100000a86EpAAI,2018,-1.67984,29.51707,3821,11355
Rwanda - Murambi - 1007452,Nyabihu,Murambi,1007452,Identified,Technical,006f100000a86EqAAI,2018,-1.67991,29.46661,2290,4247
Rwanda - Gitinda - 1007453,Nyabihu,Gitinda,1007453,Identified,Technical,006f100000a86ErAAI,2024,-1.70215,29.51309,1051,8970
Rwanda - Biryogo - 1007454,Nyagatare,Biryogo,1007454,Identified,Technical,006f100000a86EsAAI,2019,-1.367991,30.288805,11718,3538
Rwanda - Isangano - 1007455,Nyagatare,Isangano,1007455,Identified,Identified in Needs Assessment,006f100000a86EtAAI,2019,-1.334487,30.250622,17237,4001
Rwanda - cyagara - 1007657,Rusizi,cyagara,1007657,Identified,Technical,006f100000a86I9AAI,2019,-2.6891,28.99726,30956,10650
Rwanda - Nyabiranka - 1007658,Rusizi,Nyabiranka,1007658,Identified,Technical,006f100000a86IAAAY,2019,-2.396098,28.927481,3000,10089
Rwanda - Muhari - 1007659,Rusizi,Muhari,1007659,Identified,Technical,006f100000a86IBAAY,2019,-2.45399,28.89774,6000,5875
Rwanda - Kabamba - 1007660,Rusizi,Kabamba,1007660,Identified,,006f100000a86ICAAY,2024,-2.68722,29.02778,22815,7665
Rwanda - Rusayo - 1007661,Rusizi,Rusayo,1007661,Identified,Technical,006f100000a86IDAAY,2019,-2.697308,29.029517,17270,10450
Rwanda - Rungunga - 1007662,Rusizi,Rungunga,1007662,Identified,Technical,006f100000a86IEAAY,2019,-2.6668,29.00909,2471,8523
Rwanda - Kabugarama - 1007663,Rusizi,Kabugarama,1007663,Identified,Technical,006f100000a86IFAAY,2019,-2.584342,28.971386,3414,9109
Rwanda - Gasovu - 1007664,Rutsiro,Gasovu,1007664,Identified,Technical,006f100000a86IGAAY,2019,-1.89261,29.3735,2135,11483
Rwanda - Ntaruko - 1007665,Rutsiro,Ntaruko,1007665,Identified,Technical,006f100000a86IHAAY,2019,-2.03645,29.41441,2590,8886
Rwanda - Kumizero - 1007666,Rutsiro,Kumizero,1007666,Identified,Technical,006f100000a86IIAAY,2019,-1.89091,29.37094,1506,11263
Rwanda - Mabanza - 1007612,Ruhango,Mabanza,1007612,Identified,Technical,006f100000a86HQAAY,2018,-2.12558,29.67786,1321,5958
Rwanda - Kirambo - 1007614,Rulindo,Kirambo,1007614,Identified,,006f100000a86HSAAY,2018,-1.8147778,29.9598056,1000,4393
Rwanda - Rubanda - 1007615,Rulindo,Rubanda,1007615,Identified,Technical,006f100000a86HTAAY,2019,-1.6443889,29.8994722,2777,7806
Rwanda - Muduha - 1007617,Rulindo,Muduha,1007617,Complete,In Service,006f100000a86HVAAY,2023,-1.72441,30.0589,800,5019
Rwanda - Nyamugari - 1007620,Rulindo,Nyamugari,1007620,Prospecting,,006f100000a86HYAAY,2023,-1.66139,29.88583,,6912
Rwanda - Karengo - 1008002,Rulindo,Karengo,1008002,Identified,,006f100000aATjCAAW,2019,-1.78583333,30.0825,7767,5995
Rwanda - Buyoga - 1009296,Muhanga,Buyoga,1009296,Identified,,006f100000ary6hAAA,2019,-1.930371,29.779313,1550,4060
Rwanda - Rurembo - 1009700,Gicumbi,Rurembo,1009700,Identified,Technical,006f100000bMJwmAAG,2018,,,,
Rwanda - Kirwa - 1009702,Gicumbi,Kirwa,1009702,Identified,Technical,006f100000bMJxuAAG,2018,-1.61168,30.15833,1789,4301
Rwanda - Ndarama - 1009706,Gicumbi,Ndarama,1009706,Identified,Technical,006f100000bMJzCAAW,2018,-1.46305,30.0909,1523,5476
Rwanda - Nyamugari - 1009713,Gicumbi,Nyamugari,1009713,Identified,Technical,006f100000bMK1IAAW,2018,-1.55224,30.16326,574,3920
Rwanda - Kigoma - 1009707,Gicumbi,Kigoma,1009707,Identified,Technical,006f100000bMJzqAAG,2018,-1.65897,30.114,3350,5747
Rwanda - Nyagakizi - 1009714,Gicumbi,Nyagakizi,1009714,Complete,In Service,006f100000bMK1XAAW,2023,-1.533333,30.173611,1216,3908
Rwanda - Ngabira munsi y umurenge - 1009712,Gicumbi,Ngabira munsi y umurenge,1009712,Identified,Technical,006f100000bMK0oAAG,2018,-1.44522,30.08827,0,4253
Rwanda - Kiruhura - 1009705,Gicumbi,Kiruhura,1009705,Identified,Technical,006f100000bMJz7AAG,2019,-1.464697,30.056749,1185,6825
Rwanda - Rugaragara-Mayogi - 1009710,Gicumbi,Rugaragara-Mayogi,1009710,Identified,Technical,006f100000bMK0PAAW,2018,-1.7012,30.20941,1060,4623
Rwanda - Rurenge - 1009715,Gicumbi,Rurenge,1009715,Identified,Technical,006f100000bMK1cAAG,2018,-1.51969,30.15237,1326,2662
Rwanda - Murehe - 1009716,Gicumbi,Murehe,1009716,Identified,Technical,006f100000bMK1dAAG,2018,-1.54881,30.13056,580,4306
Rwanda - Rutagara - 1009554,Gakenke,Rutagara,1009554,Identified,Vehicular Bridge Required,006f100000bKzAFAA0,2018,-1.730472,29.662278,0,8890
Rwanda - Kurutare - 1009553,Gakenke,Kurutare,1009553,Identified,,006f100000bKz7zAAC,2018,-1.733888889,29.65638889,2850,9401
Rwanda - Minigo - 1009064,Rubavu,Minigo,1009064,Complete,In Service,006f100000aSNCPAA4,2018,-1.692028,29.294444,4300,13232
Rwanda - Nyarurembo - 1009066,Rubavu,Nyarurembo,1009066,Identified,,006f100000aSNCRAA4,2023,-1.705622,29.309857,,
Rwanda - Rukore - 1009067,Rubavu,Rukore,1009067,Complete,In Service,006f100000aSNCSAA4,2018,-1.746972,29.370611,170,9346
Rwanda - Kazabe - 1009068,Rubavu,Kazabe,1009068,Complete,In Service,006f100000aSNCTAA4,2019,-1.723639,29.366194,4100,9871
Rwanda - Nombe - 1009071,Rubavu,Nombe,1009071,Identified,Vehicular Bridge Required,006f100000aSNCWAA4,2019,-1.7056,29.30982,,12835
Rwanda - Buhuma - Rubambiro - 1039222,Ngororero,Buhuma - Rubambiro,1039222,Identified,,0063Z00000sfDhPQAU,2024,-1.820328,29.547763,3200,
Rwanda - Nkuri - RW125,Ngororero,Nkuri,RW125,Complete,In Service,006f100000Zt6QcAAJ,2018,-1.922667,29.575833,5000,6021
Rwanda - Karehe - RW126,Ngororero,Karehe,RW126,Complete,In Service,006f100000Zt6UjAAJ,2018,-1.971333,29.602778,8000,6622
Rwanda - Budende - RW120,Muhanga,Budende,RW120,Complete,In Service,006f100000ZQRkHAAX,2017,-1.87583,29.80681,8520,4592
Rwanda - Kumusenyi - RW119,Muhanga,Kumusenyi,RW119,Complete,In Service,006f100000ZQRkOAAX,2017,-1.827389,29.67125,8500,7227
Rwanda - Nyirakibehe - RW124,Gasabo,Nyirakibehe,RW124,Complete,In Service,006f100000ZQRkPAAX,2017,-1.848167,30.097,10000,5174
Rwanda - Rutaka - RW118,Muhanga,Rutaka,RW118,Complete,In Service,006f100000ZQRkQAAX,2017,-2.041333,29.69886,10000,6172
Rwanda - Uwimpfizi - RW123,Nyaruguru,Uwimpfizi,RW123,Complete,In Service,006f100000ZQRkRAAX,2017,-2.621,29.4405,2000,4002
Rwanda - Vunga - RW901,,Vunga,RW901,Complete,In Service,006f100000ZQRpqAAH,2008,-1.687948,29.637861,500,9328
Rwanda - Kamasiga Kibrira - RW902,Ngororero,Kamasiga Kibrira,RW902,Complete,In Service,006f100000ZQRprAAH,2012,-1.92738,29.629086,10000,8899
Rwanda - Mayange Nyamabare - RW903,Gatsibo,Mayange Nyamabare,RW903,Complete,In Service,006f100000ZQRpsAAH,2012,-1.555918,30.211844,12000,4185
Rwanda - Kamajanga - 1002618,Nyabihu,Kamajanga,1002618,Complete,In Service,006f100000ZQRptAAH,2013,-1.732996,29.543025,1000,12594
Rwanda - Cyamtunda - 1002619,Karongi,Cyamtunda,1002619,Complete,In Service,006f100000ZQRpuAAH,2013,-2.222701,29.529556,2400,4284
Rwanda - Bakokwe - 1002620,Kamonyi,Bakokwe,1002620,Complete,In Service,006f100000ZQRpvAAH,2013,-1.90272,29.79132,3000,4215
Rwanda - Muregeya - 1002621,Karongi,Muregeya,1002621,Complete,Out of Service,006f100000ZQRpwAAH,2013,-2.024871,29.380443,3620,5256
Rwanda - Taba - 1002622,Gakenke,Taba,1002622,Complete,In Service,006f100000ZQRpxAAH,2014,-1.700583,29.831933,6500,5855
Rwanda - Rugogwe - RW103,Ngororero,Rugogwe,RW103,Complete,In Service,006f100000ZQRpyAAH,2014,-1.920847,29.631467,1000,8722
Rwanda - Sha - RW101,Gasabo,Sha,RW101,Complete,In Service,006f100000ZQRpzAAH,2014,-1.813833,30.098779,3000,5124
Rwanda - Rutenderi - RW102,Gakenke,Rutenderi,RW102,Complete,In Service,006f100000ZQRq0AAH,2014,-1.660639,29.873889,2313,6409
Rwanda - Rwamahwa - RW107,Rulindo,Rwamahwa,RW107,Complete,In Service,006f100000ZQRq1AAH,2015,-1.634806,29.896667,5000,7690
Rwanda - Shagasha - RW106,Rulindo,Shagasha,RW106,Complete,In Service,006f100000ZQRq2AAH,2015,-1.710694,30.048972,1000,5331
Rwanda - Gasura - RW104,Gasabo,Gasura,RW104,Complete,In Service,006f100000ZQRq3AAH,2015,-1.820833,30.113889,7000,4670
Rwanda - Gaseke - RW105,Gicumbi,Gaseke,RW105,Complete,In Service,006f100000ZQRq4AAH,2015,-1.765778,30.127389,4300,4375
Rwanda - Coko - RW112,Nyaruguru,Coko,RW112,Complete,In Service,006f100000ZQRq5AAH,2016,-2.747417,29.575389,1510,3982
Rwanda - Kanyarira - RW111,Muhanga,Kanyarira,RW111,Complete,In Service,006f100000ZQRq6AAH,2016,-2.11375,29.705778,8000,4388
Rwanda - Cyumba - RW109,Nyaruguru,Cyumba,RW109,Complete,In Service,006f100000ZQRq7AAH,2016,-2.793167,29.699444,4000,5498
Rwanda - Mubuga - RW108,Muhanga,Mubuga,RW108,Complete,In Service,006f100000ZQRq8AAH,2016,-2.143889,29.783333,12000,7339
Rwanda - Butare - RW110,Muhanga,Butare,RW110,Complete,In Service,006f100000ZQRq9AAH,2016,-1.942167,29.773667,8000,4193
Rwanda - Kigohe - RW116,Nyanza,Kigohe,RW116,Complete,In Service,006f100000ZQRqAAAX,2016,-2.311972,29.630944,6500,4423
Rwanda - Kukibuye - RW114,Nyabihu,Kukibuye,RW114,Complete,In Service,006f100000ZQRqBAAX,2016,-1.602056,29.636083,12000,8154
Rwanda - Tubungo - RW113,Nyabihu,Tubungo,RW113,Complete,In Service,006f100000ZQRqCAAX,2016,-1.65225,29.634444,10000,8628
Rwanda - Mariba - RW115,Nyabihu,Mariba,RW115,Complete,In Service,006f100000ZQRqDAAX,2017,-1.688611,29.542583,5780,8713
Rwanda - Gasiza - RW117,Gakenke,Gasiza,RW117,Complete,In Service,006f100000ZQRqEAAX,2017,-1.813111,29.875111,6700,5458
Rwanda - Rugusa - RW122,Nyaruguru,Rugusa,RW122,Complete,In Service,006f100000ZQRqFAAX,2017,-2.593389,29.474611,4000,4767
Rwanda - Rwimvubu - RW121,Nyaruguru,Rwimvubu,RW121,Complete,In Service,006f100000ZQRqGAAX,2017,-2.755667,29.536444,2500,4019
Rwanda - IPRC Demonstration Bridge - 1007322,Kicukiro,IPRC Demonstration Bridge,1007322,Complete,In Service,006f100000a7n8NAAQ,2018,-1.98025,30.108917,,75300
Rwanda - Cyuzu - 1009426,Muhanga,Cyuzu,1009426,Identified,Technical,006f100000atGB5AAM,2021,-1.85109,29.666005,,7002
Rwanda - Jali - 1037824,Gasabo,Jali,1037824,Identified,,0063Z00000rBBlNQAW,2022,-1.899344,30.038678,0,
Rwanda - Mutugezi - 1010425,Ruhango,Mutugezi,1010425,Identified,Vehicular Bridge Required,006f100000bgzlZAAQ,2018,-2.12013889,29.66583333,0,6075
Rwanda - Gitagara 2 - 1009857,Ruhango,Gitagara 2,1009857,Identified,Vehicular Bridge Required,006f100000bNTvYAAW,2018,-2.12042,29.6838,0,5131
Rwanda - Rutete - 1014792,Nyagatare,Rutete,1014792,Identified,Technical,006f100000efhn7AAA,2019,-1.419195,30.104228,2995,3324
Rwanda - Ruganda - 1011301,Rutsiro,Ruganda,1011301,Identified,Identified in Needs Assessment,006f100000cME4TAAW,2019,-1.91924,29.47704,1756,5284
Rwanda - Bungwe - 1011302,Rutsiro,Bungwe,1011302,Identified,Vehicular Bridge Required,006f100000cME4YAAW,2019,-1.92295,29.47887,825,5319
Rwanda - Nkuna - 1011309,Rutsiro,Nkuna,1011309,Complete,In Service,006f100000cME5HAAW,2019,-1.763,29.37679,2699,7206
Rwanda - Busuti - 1011311,Rutsiro,Busuti,1011311,Identified,Local Investment,006f100000cME5RAAW,2018,-1.7553,29.373762,600,8651
Rwanda - Mungoti - 1011316,Rutsiro,Mungoti,1011316,Identified,Vehicular Bridge Required,006f100000cME5vAAG,2019,-1.892213,29.456516,2780,4781
Rwanda - Nyiramusenyi - 1011313,Rutsiro,Nyiramusenyi,1011313,Identified,Vehicular Bridge Required,006f100000cME5bAAG,2019,-1.94245,29.470675,1970,5782
Rwanda - Kazo - 1011307,Rutsiro,Kazo,1011307,Complete,In Service,006f100000cME57AAG,2019,-1.77286,29.37514,12145,5762
Rwanda - Marimba - 1011314,Rutsiro,Marimba,1011314,Identified,Technical,006f100000cME5gAAG,2018,-1.935,29.47888,700,5327
Rwanda - Nyamakanda - 1011304,Rutsiro,Nyamakanda,1011304,Identified,Vehicular Bridge Required,006f100000cME4nAAG,2019,-1.948219,29.479638,800,5293
Rwanda - Gisozi - 1011310,Rutsiro,Gisozi,1011310,Identified,Identified in Needs Assessment,006f100000cME5MAAW,2018,-1.953832,29.532291,,5762
Rwanda - Musarara - 1023609,Muhanga,Musarara,1023609,Identified,Requested,0063Z00000jhEEjQAM,2022,-1.827983,29.667964,2364,
Rwanda - Rukurazo Rebuild - 1024518,Muhanga,Rukurazo Rebuild,1024518,Complete,In Service,0063Z00000kcnMZQAY,2021,-2.115072,29.700843,1210,4104
Rwanda - Kanyiramana 2 - 1024587,Huye,Kanyiramana 2,1024587,Prospecting,,0063Z00000kdQ8KQAU,2024,-2.491467,29.65875,3761,
Rwanda - Ruhondo - 1010410,Ruhango,Ruhondo,1010410,Identified,Vehicular Bridge Required,006f100000bgtSnAAI,2018,-2.19008333,29.71277778,0,4649
Rwanda - Ubumwe - 1014254,Nyarugenge,Ubumwe,1014254,Identified,Technical,006f100000eekWsAAI,2019,-1.966149,30.05606,1821,193056
Rwanda - Rugari - 1014261,Nyarugenge,Rugari,1014261,Identified,Technical,006f100000eekXWAAY,2019,-1.9517,30.05254,51377,191953
Rwanda - Rujuga - 1014252,Nyagatare,Rujuga,1014252,Identified,Technical,006f100000eekWdAAI,2019,-1.42013,30.26972,8144,5984
Rwanda - Cyahafi - 1010422,Ruhango,Cyahafi,1010422,Identified,,006f100000bgzEaAAI,2024,-2.141821,29.635606,1221,5084
Rwanda - Miguramo 1 - 1010423,Ruhango,Miguramo 1,1010423,Identified,Technical,006f100000bgzS3AAI,2018,-2.12023,29.6893,1081,4925
Rwanda - Gaseke - 1010411,Ruhango,Gaseke,1010411,Identified,Technical,006f100000bgtaSAAQ,2018,-2.16658,29.70104,1497,4717
Rwanda - Nyakirambi - 1014270,Nyarugenge,Nyakirambi,1014270,Identified,,006f100000eekYeAAI,2019,-1.91605,30.018722,1220,6721
Rwanda - Mutugezi - 1010426,Ruhango,Mutugezi,1010426,Identified,Vehicular Bridge Required,006f100000bh0EZAAY,2018,-2.11994444,29.66611111,0,6107
Rwanda - Gihororo - 1010427,Ruhango,Gihororo,1010427,Prospecting,,006f100000bh0JKAAY,2023,-2.12117,29.6109,1408,4912
Rwanda - Kiryango - 1010428,Ruhango,Kiryango,1010428,Identified,Technical,006f100000bh0WYAAY,2019,-2.15158,30.65636,3613,2164
Rwanda - Kiruhura - 1010429,Ruhango,Kiruhura,1010429,Identified,Technical,006f100000bh0hgAAA,2018,-2.18125,29.72444444,,4571
Rwanda - Mbuye - 1010405,Nyaruguru,Mbuye,1010405,Identified,Vehicular Bridge Required,006f100000bge3IAAQ,2019,-2.751556,29.717861,0,7024
Rwanda - Gasharu - 1010409,Ruhango,Gasharu,1010409,Identified,Technical,006f100000bgsNQAAY,2019,-2.17554,30.69667,2246,2124
Rwanda - Satinsyi - 1010406,Ngororero,Satinsyi,1010406,Identified,Vehicular Bridge Required,006f100000bge7oAAA,2019,-1.75995,29.66276667,0,7462
Rwanda - Musenyi - 1014495,Ngoma,Musenyi,1014495,Identified,Vehicular Bridge Required,006f100000ef7b0AAA,2019,-2.256448,30.484267,555,3980
Rwanda - Bigo1 - 1014502,Kicukiro,Bigo1,1014502,Identified,Vehicular Bridge Required,006f100000ef7eOAAQ,2019,-2.012684,30.087223,8759,7462
Rwanda - Mukuge - 1010404,Nyaruguru,Mukuge,1010404,Identified,Vehicular Bridge Required,006f100000bge1qAAA,2019,-2.682028,29.703194,0,5380
Rwanda - Rukorobeza - 1011305,Rutsiro,Rukorobeza,1011305,Identified,Technical,006f100000cME4sAAG,2018,-1.94222,29.485,2521,4981
Rwanda - Ryakwata - 1010572,Gicumbi,Ryakwata,1010572,Identified,Technical,006f100000biK9AAAU,2018,-1.57746,30.13654,700,4565
Rwanda - Kivugiza (nyange) - 1010579,Gicumbi,Kivugiza (nyange),1010579,Identified,,006f100000biKAaAAM,2019,-1.66842,30.100122,,5552
Rwanda - Gahondo - 1010577,Gicumbi,Gahondo,1010577,Identified,Technical,006f100000biKABAA2,2018,-1.539721,30.127624,1867,4179
Rwanda - Kwangaruye - 1010578,Gicumbi,Kwangaruye,1010578,Identified,Technical,006f100000biKALAA2,2019,-1.675363,30.097712,2940,5668
Rwanda - Kiruruma - 1010581,Gicumbi,Kiruruma,1010581,Identified,Technical,006f100000biKAkAAM,2018,-1.58735,30.14216,832,4245
Rwanda - Nyagatare - 1011306,Rutsiro,Nyagatare,1011306,Identified,Technical,006f100000cME4xAAG,2018,-1.94833,29.493611,1788,4470
Rwanda - Kavuruga - 1010580,Gicumbi,Kavuruga,1010580,Identified,Technical,006f100000biKAfAAM,2018,-1.575188,30.144215,1460,4447
Rwanda - Rwarurema - 1010573,Gicumbi,Rwarurema,1010573,Identified,Technical,006f100000biK9KAAU,2018,-1.59687,30.15019,1100,4046
Rwanda - Rwahi - 1011441,Rulindo,Rwahi,1011441,Identified,Technical,006f100000cMz95AAC,2017,-1.869775,29.920158,,6100
Rwanda - Kabona - 1011303,Rutsiro,Kabona,1011303,Identified,Technical,006f100000cME4dAAG,2018,-1.9386111,29.45666,1200,6230
Rwanda - Rwamamara - 1010941,Ngororero,Rwamamara,1010941,Complete,In Service,006f100000c5pcIAAQ,2019,-1.83113,29.62303,4200,7451
Rwanda - Bunihiri - 1012004,Rutsiro,Bunihiri,1012004,Identified,Technical,006f100000cx4V4AAI,2018,-1.95277,29.49722,0,3817
Rwanda - Ngabira - 1011330,Gicumbi,Ngabira,1011330,Identified,Technical,006f100000cMOsWAAW,2018,-1.43057,30.0783,906,4377
Rwanda - Rukizi - 1011332,Gicumbi,Rukizi,1011332,Identified,Technical,006f100000cMQ0CAAW,2019,-1.44338889,30.02083333,,6163
Rwanda - Kibaya - 1011331,Gicumbi,Kibaya,1011331,Identified,Technical,006f100000cMPMMAA4,2018,-1.70215,30.07467,950,5536
Rwanda - Rusayo - 1012004,Rutsiro,Rusayo,1012004,Under Construction,,006f100000cx4bNAAQ,2023,-1.96222,29.461388,2200,6115
Rwanda - Karama - Muhengeri - 1010917,Gicumbi,Karama - Muhengeri,1010917,Complete,In Service,006f100000c5ivZAAQ,2023,-1.671847,30.057339,1619,6155
Rwanda - Gatembe - 1007898,Gakenke,Gatembe,1007898,Identified,,006f100000c5VbqAAE,2019,-1.65575,29.8198,8000,7031
Rwanda - Rukondo - 1010908,Gicumbi,Rukondo,1010908,Identified,Technical,006f100000c5hhNAAQ,2018,-1.71461,30.08255,1300,4807
Rwanda - Ruhondo - 1010919,Gicumbi,Ruhondo,1010919,Prospecting,,006f100000c5jCGAAY,2024,-1.693048,30.06977,,5888
Rwanda - Nyarubande-Gatobotobo - 1010843,Gicumbi,Nyarubande-Gatobotobo,1010843,Identified,Technical,006f100000c5V35AAE,2019,-1.6623,30.08107,1353,5502
Rwanda - Rugarama - 1010845,Gicumbi,Rugarama,1010845,Identified,,006f100000c5V3UAAU,2018,-1.77241,30.22087,2243,4944
Rwanda - Mayogi - 1010847,Gicumbi,Mayogi,1010847,Identified,Vehicular Bridge Required,006f100000c5V3oAAE,2018,-1.701199,30.209405,2200,4480
Rwanda - Gatare - 1010840,Gicumbi,Gatare,1010840,Identified,Technical,006f100000c5V2gAAE,2018,-1.455716,30.0494,1590,7152
Rwanda - Nyamirambo 2 - 1010846,Gicumbi,Nyamirambo 2,1010846,Identified,,006f100000c5V3eAAE,2018,-1.76133,30.20837,1150,4924
Rwanda - Rwafandi - 1010915,Gicumbi,Rwafandi,1010915,Identified,Technical,006f100000c5iL7AAI,2018,-1.71943,30.11859,2876,4306
Rwanda - Baramba - 1007897,Gakenke,Baramba,1007897,Identified,Technical,006f100000c5VQsAAM,2019,-1.75261,29.81207,4032,4023
Rwanda - Nyakabungo - 1038493,Gasabo,Nyakabungo,1038493,Complete,In Service,0063Z00000rCygsQAC,2022,-1.88866484,30.03297131,2972,
Rwanda - Musasa 3A - 1014027,Karongi,Musasa 3A,1014027,Identified,Requested,006f100000d1fMTAAY,2019,-2.19859833,29.51245167,5332,3800
Rwanda - Gisesero - 1014089,Rusizi,Gisesero,1014089,Identified,Vehicular Bridge Required,006f100000d1fVQAAY,2019,-2.5886,29.05452,850,7162
Rwanda - Pfunda - 1014004,Rubavu,Pfunda,1014004,Identified,Technical,006f100000d1dvfAAA,2019,-1.70533,29.30478,650,13628
Rwanda - Raro - 1014327,Kamonyi,Raro,1014327,Identified,Vehicular Bridge Required,006f100000eesdZAAQ,2019,-1.896261,29.951448,600,5313
Rwanda - Karukina - 1014268,Nyarugenge,Karukina,1014268,Identified,Technical,006f100000eekYPAAY,2019,-2.01861,30.0085,3180,3180
Rwanda - Bahimba-maswa-nyamweru - 1014305,Kamonyi,Bahimba-maswa-nyamweru,1014305,Identified,Technical,006f100000eelvcAAA,2019,-2.08723,29.92198,2554,4261
Rwanda - Ntibiki - 1014303,Kamonyi,Ntibiki,1014303,Identified,Technical,006f100000eelnpAAA,2019,-2.09932,29.81269,2496,7371
Rwanda - Rwantobo - 1014063,Rubavu,Rwantobo,1014063,Identified,Technical,006f100000d1fSgAAI,2023,-1.74047,29.37229,1550,9411
Rwanda - Karambo - 1014140,Rusizi,Karambo,1014140,Identified,Technical,006f100000d1hJOAAY,2019,-2.45575,28.97641,4588,7337
Rwanda - Kabuye - 1014161,Rusizi,Kabuye,1014161,Identified,Technical,006f100000d1hQKAAY,2019,-2.34684,29.11432,4256,7671
Rwanda - Nyamabuye - 1014359,Ngoma,Nyamabuye,1014359,Identified,Technical,006f100000eeuvqAAA,2019,-2.12939,30.61855,12806,3786
Rwanda - Nyagacyamo - 1014414,Gatsibo,Nyagacyamo,1014414,Identified,Technical,006f100000eev1UAAQ,2019,-1.6296,30.343077,3242,4941
Rwanda - Kivuba - 1014412,Gatsibo,Kivuba,1014412,Identified,Technical,006f100000eev1KAAQ,2019,-1.684211,30.350028,5838,3885
Rwanda - Buzi - 1013971,Rusizi,Buzi,1013971,Identified,Technical,006f100000d1TmAAAU,2019,-2.42021,28.95772,4850,11555
Rwanda - Karuruma - 1014292,Kamonyi,Karuruma,1014292,Prospecting,,006f100000eekhAAAQ,2024,-2.10672,29.86075,8600,6515
Rwanda - Ruhabwa - 1014009,Nyamasheke,Ruhabwa,1014009,Identified,Technical,006f100000d1f2JAAQ,2019,-2.515733,29.04382,9384,9575
Rwanda - Kadasaya - 1014312,Kamonyi,Kadasaya,1014312,Identified,Requested,006f100000eeqs4AAA,2024,-2.041621,29.930816,,4520
Rwanda - Munyegera - 1014320,Kamonyi,Munyegera,1014320,Identified,Technical,006f100000eescqAAA,2019,-1.915772,29.866533,5030,7090
Rwanda - Muremure - 1014048,Karongi,Muremure,1014048,Identified,Technical,006f100000d1fOjAAI,2019,-2.23574,29.48168167,22292,3143
Rwanda - Murambi - 1014114,Nyamasheke,Murambi,1014114,Identified,Technical,006f100000d1h8QAAQ,2019,-2.3645,29.1246,1000,6233
Rwanda - Nkurunziza - 1013973,Rusizi,Nkurunziza,1013973,Identified,Technical,006f100000d1Tn3AAE,2019,-2.48234,28.90941,3614,37678
Rwanda - Karitasi 2 - 1013993,Rusizi,Karitasi 2,1013993,Identified,Technical,006f100000d1TuEAAU,2019,-2.45603,28.91183,5163,13059
Rwanda - Nyabirondo - 1014264,Nyarugenge,Nyabirondo,1014264,Identified,Technical,006f100000eekXlAAI,2019,-2.05434,30.04781,5872,3958
Rwanda - Bigo 2 - 1014503,Kicukiro,Bigo 2,1014503,Identified,Vehicular Bridge Required,006f100000ef7eTAAQ,2019,-2.01259,30.08668,8759,7413
Rwanda - Bugomba - 1009704,Gicumbi,Bugomba,1009704,Identified,Technical,006f100000bMJysAAG,2018,-1.44911,30.04685,2294,6774
Rwanda - Kamutore Barrage - 1009711,Gicumbi,Kamutore Barrage,1009711,Identified,Technical,006f100000bMK0jAAG,2018,-1.47875,30.10468,1796,5420
Rwanda - Sunzu - 1009703,Gicumbi,Sunzu,1009703,Identified,Technical,006f100000bMJy4AAG,2018,-1.60178,30.15318,612,4015
Rwanda - Kamenge - 1021789,Nyarugenge,Kamenge,1021789,Identified,Technical,0063Z00000huHAMQA2,2020,-1.947858,30.00694444,100,
Rwanda - Sector 3 bridge - 1022386,Gasabo,Sector 3 bridge,1022386,Identified,,0063Z00000hwQZ7QAM,2020,-1.952646,30.139628,500,
Rwanda - Sector 4A - 1022387,Gasabo,Sector 4A,1022387,Identified,,0063Z00000hwQZRQA2,2020,-1.957537,30.151651,500,
Rwanda - Sector 4B - 1022388,Gasabo,Sector 4B,1022388,Identified,,0063Z00000hwQZgQAM,2021,-1.951633,30.146159,1500,
Rwanda - Birambo - 1014060,Karongi,Birambo,1014060,Identified,Technical,006f100000d1fSCAAY,2019,-2.21065,29.519803,4626,4130
Rwanda - Karuberwa - 1014362,Ngoma,Karuberwa,1014362,Identified,Technical,006f100000eeuw5AAA,2019,-2.14193,30.50383,11555,4193
Rwanda - Isangano-Kabeza - 1014393,Nyagatare,Isangano-Kabeza,1014393,Identified,Technical,006f100000eeuziAAA,2019,-1.349094,30.202762,4604,6151
Rwanda - Rugenge - 1014421,Ngoma,Rugenge,1014421,Identified,Technical,006f100000eev28AAA,2019,-2.234163,30.513445,11799,3460
Rwanda - Rugarama - 1014149,Nyaruguru,Rugarama,1014149,Identified,Requested,006f100000d1hN1AAI,2019,-2.71276,29.46918,3830,4135
Rwanda - Nyabivumu - 1014070,Karongi,Nyabivumu,1014070,Identified,Technical,006f100000d1fTKAAY,2019,-2.154842,29.5107383,4055,6018
Rwanda - Marembo - 1014616,Rwamagana,Marembo,1014616,Identified,Technical,006f100000efHCcAAM,2019,-1.970761,30.232989,3815,12854
Rwanda - Gitwa - 1014016,Rusizi,Gitwa,1014016,Identified,Vehicular Bridge Required,006f100000d1f2xAAA,2019,-2.434499,28.946438,565,10205
Rwanda - Bisoro-Makoko - 1014112,Nyamasheke,Bisoro-Makoko,1014112,Identified,Vehicular Bridge Required,006f100000d1h7wAAA,2019,-2.3557,29.11136,1000,7828
Rwanda - Tomi - 1014470,Kirehe,Tomi,1014470,Identified,Technical,006f100000ef6yRAAQ,2019,-2.1496,30.66541,320,2363
Rwanda - Cercle sportif - 1014567,Nyarugenge,Cercle sportif,1014567,Identified,Technical,006f100000efEfzAAE,2019,-1.965138,30.071417,3045,160896
Rwanda - Kinteko - 1014619,Bugesera,Kinteko,1014619,Identified,Technical,006f100000efHIuAAM,2019,-2.261622,29.988408,1885,4239
Rwanda - Rwinkomo - 1014081,Karongi,Rwinkomo,1014081,Identified,Technical,006f100000d1fUSAAY,2019,-2.10922,29.59721,2059,5075
Rwanda - Katabuvuga - 1014095,Rusizi,Katabuvuga,1014095,Identified,Technical,006f100000d1fVuAAI,2019,-2.63441,29.01131,2490,9088
Rwanda - Kibobo-Rwingeyo - 1014613,Gasabo,Kibobo-Rwingeyo,1014613,Identified,Technical,006f100000efHCDAA2,2019,-1.864099,30.23329,3218,5379
Rwanda - Ntenyi - 1013985,Rusizi,Ntenyi,1013985,Identified,Technical,006f100000d1TswAAE,2019,-2.60778,28.95301,3384,8414
Rwanda - Buzi - 1014107,Rusizi,Buzi,1014107,Identified,Technical,006f100000d1fk1AAA,2019,-2.42056,28.9662,2859,11362
Rwanda - Kiyovu-buhanda - 1014094,Rusizi,Kiyovu-buhanda,1014094,Complete,In Service,006f100000d1fVpAAI,2023,-2.70183,29.03029,1259,10592
Rwanda - Kanyangesa - 1014274,Kamonyi,Kanyangesa,1014274,Identified,Technical,006f100000eekcKAAQ,2019,-2.06966,29.84335,2055,6419
Rwanda - Mukunguri - 1014275,Kamonyi,Mukunguri,1014275,Identified,Technical,006f100000eekcPAAQ,2019,-2.05318,29.86879,1858,5880
Rwanda - Gaseke - 1014511,Ngoma,Gaseke,1014511,Identified,Technical,006f100000ef7oOAAQ,2019,-2.008345,30.412562,7563,3198
Rwanda - Kamigisha - 1014106,Rusizi,Kamigisha,1014106,Identified,Technical,006f100000d1fjwAAA,2019,-2.42486,28.95726,3398,11901
Rwanda - Nyagasozi - 1013979,Rusizi,Nyagasozi,1013979,Identified,Technical,006f100000d1TsSAAU,2019,-2.57813,28.97657,5081,8408
Rwanda - Rubirizi - 1014364,Ngoma,Rubirizi,1014364,Identified,Technical,006f100000eeuwFAAQ,2019,-2.17331,30.57956,13110,4544
Rwanda - Mugonero - 1014056,Karongi,Mugonero,1014056,Complete,In Service,006f100000d1fPrAAI,2021,-2.14763,29.34468,540,13259
Rwanda - Ngoma 22 - 1014350,Ngoma,Ngoma 22,1014350,Identified,Technical,006f100000eeuuiAAA,2019,-2.08722,30.50135,11512,3419
Rwanda - Akabaya - 1014385,Ngoma,Akabaya,1014385,Identified,Technical,006f100000eeuz4AAA,2019,-2.181385,30.479072,7450,4707
Rwanda - Mpinga - 1014013,Rusizi,Mpinga,1014013,Identified,Technical,006f100000d1f2dAAA,2019,-2.517903,29.002786,4281,10363
Rwanda - Rwabiyombi~ kijumbura 2 - 1014466,Kirehe,Rwabiyombi~ kijumbura 2,1014466,Identified,Technical,006f100000ef6y2AAA,2019,-2.365716,30.542117,5000,3848
Rwanda - Kwa Dubaii - 1014241,Gasabo,Kwa Dubaii,1014241,Identified,Technical,006f100000eekVGAAY,2019,-1.903719,30.104828,4500,8004
Rwanda - Karutare - 1014051,Karongi,Karutare,1014051,Identified,Technical,006f100000d1fPDAAY,2019,-2.164835,29.491473,3151,4501
Rwanda - Kansi - 1014152,Nyaruguru,Kansi,1014152,Identified,Technical,006f100000d1hOEAAY,2019,-2.60126,29.52739,6674,4222
Rwanda - Bahimba - 1014279,Kamonyi,Bahimba,1014279,Identified,Technical,006f100000eekg7AAA,2019,-2.05153,29.83695,3362,7640
Rwanda - Nyakagende - 1014248,Nyagatare,Nyakagende,1014248,Identified,Technical,006f100000eekWJAAY,2019,-1.46111,30.23321,6204,4880
Rwanda - Karambi - 1014154,Rusizi,Karambi,1014154,Identified,Technical,006f100000d1hOxAAI,2019,-2.43675,28.95227,3651,11054
Rwanda - Kazibo - 1014121,Nyamasheke,Kazibo,1014121,Identified,Technical,006f100000d1hE4AAI,2019,-2.34955,29.04256,1030,8180
Rwanda - Muhazi - 1014310,Kamonyi,Muhazi,1014310,Identified,Technical,006f100000eeqqSAAQ,2024,-1.873616,29.852021,25000,4446
Rwanda - Rasaniro - 1014077,Karongi,Rasaniro,1014077,Identified,Technical,006f100000d1fU8AAI,2019,-2.24468,29.40848,3263,6125
Rwanda - Nyamabuye - 1014336,Kamonyi,Nyamabuye,1014336,Identified,Technical,006f100000eessKAAQ,2019,-1.931734,29.894059,3702,7765
Rwanda - Umukamba - 1014424,Ngoma,Umukamba,1014424,Identified,Technical,006f100000eev44AAA,2019,-2.170028,30.497287,4146,4792
Rwanda - Sabaganga - 1014504,Kicukiro,Sabaganga,1014504,Identified,Technical,006f100000ef7eYAAQ,2019,-1.992257,30.085447,1925,48367
Rwanda - Gaseke - 1014097,Rusizi,Gaseke,1014097,Identified,Technical,006f100000d1fW4AAI,2019,-2.5679,29.01254,8296,9744
Rwanda - Kereta - 1014487,Kirehe,Kereta,1014487,Identified,Technical,006f100000ef71BAAQ,2019,-2.1664,30.78863,10098,3640
Rwanda - Gikomero - 1014370,Ngoma,Gikomero,1014370,Identified,Vehicular Bridge Required,006f100000eeuwjAAA,2019,-2.085,30.50046,6450,3534
Rwanda - Kwa Gapfizi - 1014371,Ngoma,Kwa Gapfizi,1014371,Identified,Technical,006f100000eeuwoAAA,2019,-2.07431,30.48649,14418,4432
Rwanda - Kabaya - 1014397,Nyagatare,Kabaya,1014397,Identified,Vehicular Bridge Required,006f100000eev02AAA,2019,-1.436156,30.307663,1405,6432
Rwanda - Bwicaro - 1014418,Gatsibo,Bwicaro,1014418,Identified,Vehicular Bridge Required,006f100000eev1oAAA,2019,-1.564462,30.194624,1,4157
Rwanda - Gatare - 1013990,Rusizi,Gatare,1013990,Identified,Technical,006f100000d1TtfAAE,2019,-2.6639,28.95315,4154,6952
Rwanda - Kanama - 1014429,Ngoma,Kanama,1014429,Identified,Technical,006f100000eev5KAAQ,2019,-2.106907,30.42817,12427,4436
Rwanda - Agahama - 1014450,Gasabo,Agahama,1014450,Identified,Technical,006f100000eevObAAI,2019,-1.849236,30.064609,1484,8156
Rwanda - Karushaririza - 1013995,Rusizi,Karushaririza,1013995,Identified,Technical,006f100000d1TuTAAU,2019,-2.46236,28.92434,,13476
Rwanda - Gatorove - 1014065,Karongi,Gatorove,1014065,Identified,Requested,006f100000d1fSqAAI,2019,-2.26958,29.42796,1240,4826
Rwanda - Kwa Ruberandinda - 1014078,Karongi,Kwa Ruberandinda,1014078,Identified,Technical,006f100000d1fUDAAY,2019,-2.23732,29.40253,2383,6466
Rwanda - Mugongo - 1014101,Rusizi,Mugongo,1014101,Identified,Technical,006f100000d1fWdAAI,2019,-2.50322,28.90339,2425,15155
Rwanda - Gacyamo - 1014108,Rusizi,Gacyamo,1014108,Identified,Technical,006f100000d1fk6AAA,2019,-2.41855,28.96946,2859,11672
Rwanda - Ruvunasati - 1014021,Nyamasheke,Ruvunasati,1014021,Identified,Technical,006f100000d1f3RAAQ,2019,-2.542708,29.035636,19437,11288
Rwanda - Kavumu - 1014119,Nyamasheke,Kavumu,1014119,Complete,In Service,006f100000d1hDLAAY,2023,-2.37608,29.16455,4871,4678
Rwanda - Mataba - 1014316,Kamonyi,Mataba,1014316,Identified,Technical,006f100000eeqt7AAA,2019,-2.005117,29.917354,6305,7264
Rwanda - Gatanga - 1014571,Bugesera,Gatanga,1014571,Identified,Technical,006f100000efEl9AAE,2019,-2.32955,30.056882,13804,4969
Rwanda - Rugobagoba - 1014461,Rwamagana,Rugobagoba,1014461,Identified,Technical,006f100000ef6xdAAA,2019,-2.02333,30.43209,3468,4560
Rwanda - Kagarama - 1014328,Kamonyi,Kagarama,1014328,Identified,Technical,006f100000eesiPAAQ,2019,-1.984548,29.931428,6640,7182
Rwanda - Mikamba~nyaruhengeri - 1014339,Kamonyi,Mikamba~nyaruhengeri,1014339,Identified,Technical,006f100000eesseAAA,2019,-2.126854,29.946166,23060,4906
Rwanda - Ruramba - 1013992,Rusizi,Ruramba,1013992,Identified,Technical,006f100000d1TtpAAE,2019,-2.6402,29.00718,4704,8149
Rwanda - Irayirayi - 1014594,Gasabo,Irayirayi,1014594,Identified,Technical,006f100000efHACAA2,2019,-1.78019,30.14043,19000,4495
Rwanda - Kisaro - 1014244,Nyagatare,Kisaro,1014244,Identified,Technical,006f100000eekVuAAI,2019,-1.45106,30.20714,6245,5252
Rwanda - Rubungo - 1014266,Nyarugenge,Rubungo,1014266,Identified,Technical,006f100000eekXvAAI,2019,-2.072995,30.016687,9713,2758
Rwanda - Bahimba ya kigabiro - 1014298,Kamonyi,Bahimba ya kigabiro,1014298,Identified,Technical,006f100000eekheAAA,2019,-2.08375,29.9012,1810,4426
Rwanda - Sumoyamana - 1013968,Rusizi,Sumoyamana,1013968,Identified,Technical,006f100000d1TlHAAU,2019,-2.39416,28.94347,1716,7492
Rwanda - Karongi - 1013980,Rusizi,Karongi,1013980,Identified,Technical,006f100000d1TsXAAU,2019,-2.57549,28.97839,5081,7850
Rwanda - Karitasi 1 - 1013994,Rusizi,Karitasi 1,1013994,Identified,Technical,006f100000d1TuOAAU,2019,-2.45187,28.91158,4842,11873
Rwanda - Gasharu-Makoko - 1014116,Nyamasheke,Gasharu-Makoko,1014116,Identified,Vehicular Bridge Required,006f100000d1h8fAAA,2019,-2.34716,29.11627,743,7619
Rwanda - Gatagara - 1014120,Nyamasheke,Gatagara,1014120,Identified,Technical,006f100000d1hDpAAI,2019,-2.38897,29.1315,12237,5128
Rwanda - Kigenge-Kamayenga - 1014125,Nyamasheke,Kigenge-Kamayenga,1014125,Identified,Technical,006f100000d1hF7AAI,2019,-2.43036899,28.98131295,5115,11124
Rwanda - Bizenga - 1014138,Nyamasheke,Bizenga,1014138,Prospecting,,006f100000d1hIkAAI,2023,-2.33616,29.1422,6067,11130
Rwanda - Rugombo - 1014139,Rusizi,Rugombo,1014139,Identified,Technical,006f100000d1hIvAAI,2019,-2.46906,28.95562,4203,7263
Rwanda - Munkamba - 1014168,Rusizi,Munkamba,1014168,Identified,Technical,006f100000d1hUHAAY,2019,-2.57245,29.15343,2985,3265
Rwanda - Kamahoro - 1013970,Rusizi,Kamahoro,1013970,Identified,Technical,006f100000d1Tm5AAE,2019,-2.42341,28.95197,1850,12034
Rwanda - Gatagara - 1014019,Rusizi,Gatagara,1014019,Identified,Technical,006f100000d1f3HAAQ,2019,-2.552118,29.007152,5237,10346
Rwanda - Kabingo - 1014035,Karongi,Kabingo,1014035,Identified,Technical,006f100000d1fNCAAY,2019,-2.20644333,29.518888,5441,4110
Rwanda - Himbo - 1014064,Karongi,Himbo,1014064,Identified,Requested,006f100000d1fSlAAI,2019,-2.1809,29.40968,1922,3724
Rwanda - Karama - 1013969,Rusizi,Karama,1013969,Identified,Technical,006f100000d1TlqAAE,2019,-2.42356,28.94508,1850,11717
Rwanda - Mucyuzi - 1014006,Rubavu,Mucyuzi,1014006,Identified,Vehicular Bridge Required,006f100000d1e0iAAA,2022,-1.69435,29.30102,857,12674
Rwanda - Kabuganza - 1014012,Rusizi,Kabuganza,1014012,Identified,Technical,006f100000d1f2YAAQ,2019,-2.504565,28.994356,4005,7003
Rwanda - Honga - 1014018,Rusizi,Honga,1014018,Identified,Technical,006f100000d1f3CAAQ,2019,-2.533586,28.997215,500,9139
Rwanda - Gatondo - 1014020,Rusizi,Gatondo,1014020,Identified,Technical,006f100000d1f3MAAQ,2019,-2.53305,29.016558,8228,12655
Rwanda - Kirwano~ mwimereri - 1014024,Rusizi,Kirwano~ mwimereri,1014024,Identified,Technical,006f100000d1f3gAAA,2019,-2.577491,29.140912,1446,3952
Rwanda - Rubona 2 - 1014036,Karongi,Rubona 2,1014036,Identified,Technical,006f100000d1fNHAAY,2019,-2.2408033,29.4925267,22292,2754
Rwanda - Cyamakamba - 1014074,Karongi,Cyamakamba,1014074,Identified,Technical,006f100000d1fTjAAI,2019,-2.22396167,29.43661833,5357,3356
Rwanda - Nyabitimbo mwoya - 1014100,Rusizi,Nyabitimbo mwoya,1014100,Identified,Technical,006f100000d1fWOAAY,2019,-2.56517,29.08278,1855,6262
Rwanda - Kabagabo - 1014159,Nyamasheke,Kabagabo,1014159,Identified,Technical,006f100000d1hQ0AAI,2019,-2.3441,29.11119,620,7896
Rwanda - Impala - 1014166,Rusizi,Impala,1014166,Identified,Vehicular Bridge Required,006f100000d1hTnAAI,2019,-2.44246,28.9333,400,9281
Rwanda - Kinyanja - 1012433,Rutsiro,Kinyanja,1012433,Under Construction,,006f100000cPRfwAAG,2023,-1.790933,29.381622,1852,2363
Rwanda - Kamurera - 1013293,Musanze,Kamurera,1013293,Identified,Vehicular Bridge Required,006f100000d7EKWAA2,2019,,,876,
Rwanda - Nyarubande - 1012493,Gicumbi,Nyarubande,1012493,Identified,Vehicular Bridge Required,006f100000cPpL8AAK,2018,-1.65595,30.07884,0,5666
Rwanda - Mugeri - 1012457,Rutsiro,Mugeri,1012457,Complete,In Service,006f100000cPXEEAA4,2019,-2.02408333,29.41472222,2734,5576
Rwanda - Gahororo - 1012501,Huye,Gahororo,1012501,Complete,In Service,006f100000cPuuaAAC,2019,-2.621482,29.649033,7000,4817
Rwanda - Serugeme - 1012480,Ruhango,Serugeme,1012480,Complete,In Service,006f100000cPnOGAA0,2019,-2.228055556,29.57333333,4111,3447
Rwanda - Gakoro~muhe - 1013464,Musanze,Gakoro~muhe,1013464,Identified,Technical,006f100000d7Q4xAAE,2019,-1.530129,29.631873,2166,16066
Rwanda - Nyacyonga - 1013389,Nyabihu,Nyacyonga,1013389,Identified,Technical,006f100000d7Gt1AAE,2018,-1.57778,29.47565,4139,7145
Rwanda - Gakoma - 1013550,Karongi,Gakoma,1013550,Identified,Technical,006f100000d7azZAAQ,2019,-2.108,29.44281,1706,5240
Rwanda - Karambo - 1013552,Karongi,Karambo,1013552,Identified,Technical,006f100000d7azjAAA,2019,-2.11217,29.41652,2079,5510
Rwanda - Kwarushishi - 1013549,Karongi,Kwarushishi,1013549,Identified,Technical,006f100000d7azUAAQ,2019,-2.12657,29.45745,1642,4200
Rwanda - Runono - 1013612,Nyaruguru,Runono,1013612,Identified,Technical,006f100000d7hDyAAI,2019,-2.56125667,29.56492833,4192,3484
Rwanda - Kigarama - 1013290,Nyamagabe,Kigarama,1013290,Identified,Technical,006f100000d78P4AAI,2018,-2.271943,29.514311,2873,3050
Rwanda - Kwa Ndimurwango - 1013618,Burera,Kwa Ndimurwango,1013618,Identified,Technical,006f100000d7hMWAAY,2019,-1.591966,29.876044,2946,7190
Rwanda - Kagogo - 1013662,Rutsiro,Kagogo,1013662,Complete,In Service,006f100000d7iZwAAI,2020,-1.90122,29.37049,1468,10913
Rwanda - Nyarutovu - 1013627,Gakenke,Nyarutovu,1013627,Identified,Technical,006f100000d7iQLAAY,2019,-1.68267,29.67093,1592,9360
Rwanda - Ku Gatare - 1013261,Muhanga,Ku Gatare,1013261,Identified,Technical,006f100000d762OAAQ,2018,-1.99297066,29.68900376,2350,6092
Rwanda - Busasamana - 1014363,Ngoma,Busasamana,1014363,Identified,Technical,006f100000eeuwAAAQ,2019,-2.18739,30.41009,11440,3647
Rwanda - Murengere - 1013386,Nyabihu,Murengere,1013386,Identified,Technical,006f100000d7GsmAAE,2018,-1.62778,29.59093,3334,8819
Rwanda - Kiyovu - 1014538,Rwamagana,Kiyovu,1014538,Identified,Technical,006f100000ef87pAAA,2019,-1.8953,30.30129,1825,4216
Rwanda - Kanserege - 1013215,Nyamagabe,Kanserege,1013215,Complete,In Service,006f100000d75uhAAA,2022,-2.5265,29.510023,3292,5646
Rwanda - Bwumba - 1013384,Nyabihu,Bwumba,1013384,Identified,Technical,006f100000d7GscAAE,2019,-1.61143,29.57829,3312,7812
Rwanda - Ruganzu - 1013716,Nyamasheke,Ruganzu,1013716,Identified,Technical,006f100000d7jEQAAY,2019,-2.319874,29.161228,2680,7877
Rwanda - Gitunu - 1013596,Rutsiro,Gitunu,1013596,Identified,Vehicular Bridge Required,006f100000d7cerAAA,2018,,,1,
Rwanda - Kamabuye - 1014311,Kamonyi,Kamabuye,1014311,Identified,Technical,006f100000eeqqXAAQ,2019,-1.856669,29.838176,5800,4046
Rwanda - Cyabariza - 1014313,Kamonyi,Cyabariza,1014313,Identified,Technical,006f100000eeqsEAAQ,2019,-2.056492,29.940225,13900,4640
Rwanda - Kazeneza - 1013706,Kayonza,Kazeneza,1013706,Identified,Technical,006f100000d7jCyAAI,2019,-2.06686,30.62524,1862,3261
Rwanda - Cyiri - 1013279,Nyanza,Cyiri,1013279,Identified,Technical,006f100000d767SAAQ,2018,-2.45403,29.84815,4264,4814
Rwanda - Nyabinyenga - 1013811,Gisagara,Nyabinyenga,1013811,Identified,Technical,006f100000d7x5oAAA,2019,-2.70198,29.81289,5029,4992
Rwanda - Iterambere - 1014263,Nyarugenge,Iterambere,1014263,Identified,Technical,006f100000eekXgAAI,2019,-1.94544,30.05341,1162,172079
Rwanda - Pansezi - 1013311,Musanze,Pansezi,1013311,Identified,Technical,006f100000d7EMIAA2,2019,-1.545719,29.67259,4146,11016
Rwanda - Gatarinzira - 1013805,Gisagara,Gatarinzira,1013805,Cancelled,,006f100000d7x5FAAQ,2023,-2.775531,29.708728,4868,6934
Rwanda - Nyabikenke - 1013864,Karongi,Nyabikenke,1013864,Identified,Vehicular Bridge Required,006f100000d888lAAA,2019,-2.07676,29.38212,1120,5479
Rwanda - Kiciro - 1013351,Muhanga,Kiciro,1013351,Complete,In Service,006f100000d7EZRAA2,2020,-2.05545934,29.64411986,5167,4689
Rwanda - Kamatabaro - 1013713,Karongi,Kamatabaro,1013713,Identified,Technical,006f100000d7jEBAAY,2019,-2.14826,29.46926,3917,4087
Rwanda - Mombori2 - 1014284,Kamonyi,Mombori2,1014284,Identified,Technical,006f100000eekgWAAQ,2019,-2.08488,29.81828,2800,6902
Rwanda - Gisayo - 1013247,Muhanga,Gisayo,1013247,Identified,Technical,006f100000d761GAAQ,2018,-2.01790012,29.67739076,2127,5492
Rwanda - Nyarukeri - 1013548,Karongi,Nyarukeri,1013548,Identified,Technical,006f100000d7azPAAQ,2019,-2.14404,29.43463,4386,3458
Rwanda - KwaJackson - 1013865,Karongi,KwaJackson,1013865,Identified,Technical,006f100000d888qAAA,2019,-2.06989,29.342,2138,14557
Rwanda - Nyarunyinya~Rwabisindu - 1013882,Nyamasheke,Nyarunyinya~Rwabisindu,1013882,Identified,Technical,006f100000d88DMAAY,2019,-2.183169,29.262155,3765,5367
Rwanda - Nyiragakokwe - 1014304,Kamonyi,Nyiragakokwe,1014304,Identified,Technical,006f100000eelq8AAA,2019,-2.07101,29.84978,2870,6305
Rwanda - Gisiza - 1013898,Nyamasheke,Gisiza,1013898,Complete,In Service,006f100000d88KhAAI,2023,-2.353335,29.147336,3100,7735
Rwanda - Munanira - 1013583,Nyamagabe,Munanira,1013583,Complete,In Service,006f100000d7bIlAAI,2023,-2.396316,29.577776,4717,4155
Rwanda - Kigarama - 1013779,Karongi,Kigarama,1013779,Identified,Technical,006f100000d7wY7AAI,2019,-2.0924,29.44834,4026,7056
Rwanda - Akagano - 1013809,Gisagara,Akagano,1013809,Identified,Technical,006f100000d7x5eAAA,2019,-2.78075,29.74108,2490,8228
Rwanda - Hanika - 1013350,Muhanga,Hanika,1013350,Complete,In Service,006f100000d7EZMAA2,2023,-1.97717889,29.67449787,4970,5867
Rwanda - Kamabuye - 1013011,Nyanza,Kamabuye,1013011,Confirmed,,006f100000d6wRfAAI,2023,-2.30024,29.6845,4710,5105
Rwanda - Gacumbi - 1013567,Nyamasheke,Gacumbi,1013567,Identified,Technical,006f100000d7b6QAAQ,2022,-2.26295,29.189909,1888,5025
Rwanda - Rwunga - 1013465,Musanze,Rwunga,1013465,Confirmed,,006f100000d7Q52AAE,2023,-1.492419,29.573354,1035,8507
Rwanda - Gitinsi - 1013923,Gisagara,Gitinsi,1013923,Identified,Technical,006f100000d8AoPAAU,2019,-2.62646,29.88709,4897,3628
Rwanda - Mataba - 1012797,Rulindo,Mataba,1012797,Identified,Technical,006f100000d6kpDAAQ,2018,-1.62068,29.95006,1060,11251
Rwanda - Kabeza - 1014394,Nyagatare,Kabeza,1014394,Identified,Technical,006f100000eeuznAAA,2019,-1.40815,30.189856,2054,4945
Rwanda - Indatwa - 1014437,Kicukiro,Indatwa,1014437,Identified,Vehicular Bridge Required,006f100000eevL8AAI,2019,-1.965987,30.110639,4750,90103
Rwanda - Mburabuturo - 1013719,Karongi,Mburabuturo,1013719,Identified,Technical,006f100000d7jEfAAI,2019,-2.18978,29.42021,4684,5298
Rwanda - Rweru - 1013218,Nyamagabe,Rweru,1013218,Complete,In Service,006f100000d75v6AAA,2020,-2.52565,29.568185,2670,5881
Rwanda - Cyahafi - 1012834,Nyanza,Cyahafi,1012834,Identified,Technical,006f100000d6mYVAAY,2018,-2.37584,29.68033,2887,4593
Rwanda - Karuhinda - 1013920,Gisagara,Karuhinda,1013920,Identified,Technical,006f100000d8AoAAAU,2019,-2.68141,29.87402,2096,7974
Rwanda - Kibiraro - 1013334,Huye,Kibiraro,1013334,Identified,Technical,006f100000d7ETNAA2,2019,-2.43844,29.7937,3500,4793
Rwanda - Kiruri - 1012813,Rutsiro,Kiruri,1012813,Complete,In Service,006f100000d6kvTAAQ,2020,-1.985833,29.40916,3290,5508
Rwanda - Nyarusange - 1012815,Rutsiro,Nyarusange,1012815,Complete,,006f100000d6kvdAAA,2023,-1.9955,29.3925,1750,7036
Rwanda - Nyagisumo - 1012820,Nyamagabe,Nyagisumo,1012820,Ready to Confirm,,006f100000d6kxeAAA,2023,-2.332691,29.466929,2272,4512
Rwanda - Kigogo ku ishuri - 1012698,Gicumbi,Kigogo ku ishuri,1012698,Identified,Technical,006f100000dhyaiAAA,2018,-1.59361,30.01151,1002,9015
Rwanda - Karambi - 1012700,Ruhango,Karambi,1012700,Identified,Technical,006f100000dhyeaAAA,2018,-2.22283,29.65287,2543,7746
Rwanda - Mwishogwe-nyirarushyunda - 1012696,Nyamagabe,Mwishogwe-nyirarushyunda,1012696,Identified,Technical,006f100000dhyaYAAQ,2018,-2.49157,29.42108,2759,4027
Rwanda - Bushyana - 1012798,Rulindo,Bushyana,1012798,Identified,Technical,006f100000d6kpNAAQ,2018,-1.63296,29.93438,4016,9748
Rwanda - Mataba - 1012701,Ruhango,Mataba,1012701,Identified,Technical,006f100000dhyefAAA,2018,-2.23697,29.73556,1140,5868
Rwanda - Gashiha - 1012697,Nyamagabe,Gashiha,1012697,Identified,Technical,006f100000dhyadAAA,2018,-2.424161,29.542492,2110,3902
Rwanda - Ntebe - 1013278,Nyanza,Ntebe,1013278,Identified,Technical,006f100000d767NAAQ,2018,-2.45118,29.87035,1764,4169
Rwanda - Matyazo - 1013776,Karongi,Matyazo,1013776,Complete,In Service,006f100000d7wXsAAI,2022,-2.06165,29.39508,3816,7840
Rwanda - Gisiza - 1013780,Karongi,Gisiza,1013780,Identified,Technical,006f100000d7wYHAAY,2019,-2.08381,29.45655,3536,6133
Rwanda - Kabyaza - 1013785,Karongi,Kabyaza,1013785,Identified,Technical,006f100000d7wYlAAI,2019,-2.11554,29.47351,11064,5555
Rwanda - Murambi - 1013027,Nyabihu,Murambi,1013027,Identified,Technical,006f100000d6yLRAAY,2018,,,1,
Rwanda - Mugambazi - 1013788,Gakenke,Mugambazi,1013788,Identified,Technical,006f100000d7wugAAA,2019,-1.72692,29.72306,2188,5902
Rwanda - Nyarusange - 1013792,Gakenke,Nyarusange,1013792,Confirmed,,006f100000d7wv0AAA,2023,-1.72848,29.76589,2740,4672
Rwanda - Kigembe - 1013797,Gakenke,Kigembe,1013797,Identified,Technical,006f100000d7wvZAAQ,2019,-1.62963,29.65738,2386,8546
Rwanda - Ryamanyoni - 1013833,Kayonza,Ryamanyoni,1013833,Identified,Technical,006f100000d7xqEAAQ,2019,-1.74678,30.50085,7168,2375
Rwanda - Meraneza - 1014494,Ngoma,Meraneza,1014494,Identified,Technical,006f100000ef7alAAA,2019,-2.267435,30.545003,10803,3631
Rwanda - Nyakabingo - 1013285,Nyamagabe,Nyakabingo,1013285,Identified,Technical,006f100000d78OVAAY,2018,-2.37564,29.490052,2170,2887
Rwanda - Bukimba - 1014338,Kamonyi,Bukimba,1014338,Identified,Vehicular Bridge Required,006f100000eessUAAQ,2019,-1.943021,29.982635,1383,5110
Rwanda - Nyarubura - 1013896,Nyamasheke,Nyarubura,1013896,Identified,Technical,006f100000d88KNAAY,2019,-2.36254,29.2193,4514,3903
Rwanda - Ku kibuga - 1014262,Nyarugenge,Ku kibuga,1014262,Identified,Technical,006f100000eekXbAAI,2019,-1.95291,30.0532,50628,198721
Rwanda - Bweya - 1014277,Kamonyi,Bweya,1014277,Identified,Technical,006f100000eekfxAAA,2019,-2.03693,29.83341,1858,7385
Rwanda - Bigaga - 1014289,Kamonyi,Bigaga,1014289,Identified,Vehicular Bridge Required,006f100000eekgvAAA,2019,-2.07133,29.87194,890,6555
Rwanda - Bisomera 1 - 1012991,Rutsiro,Bisomera 1,1012991,Identified,Vehicular Bridge Required,006f100000d6wMbAAI,2018,-1.9222,29.473611,2048,5401
Rwanda - Kwa musakiranya - 1013318,Burera,Kwa musakiranya,1013318,Identified,Technical,006f100000d7EQEAA2,2019,-1.56761,29.99711,3383,8486
Rwanda - Ruheka - 1013325,Burera,Ruheka,1013325,Identified,Technical,006f100000d7ESAAA2,2018,-1.59185,29.923,2627,7507
Rwanda - Kwa Bizimana - 1013327,Burera,Kwa Bizimana,1013327,Identified,Technical,006f100000d7ESZAA2,2018,-1.55547,29.98941,3422,8809
Rwanda - Rugarama - 1013329,Burera,Rugarama,1013329,Identified,Vehicular Bridge Required,006f100000d7ESoAAM,2018,-1.50973,29.92132,1391,5700
Rwanda - Akanyana - 1013337,Huye,Akanyana,1013337,Identified,Technical,006f100000d7ETcAAM,2019,-2.49432,29.73509,5277,5223
Rwanda - Kimiyumbo - 1014300,Kamonyi,Kimiyumbo,1014300,Identified,Technical,006f100000eelYiAAI,2019,-2.07671,29.88236,1606,5905
Rwanda - Kamiranzogera - 1012810,Muhanga,Kamiranzogera,1012810,Complete,In Service,006f100000d6kt3AAA,2023,-1.93662,29.73471,3200,5510
Rwanda - Burambo - 1013638,Rutsiro,Burambo,1013638,Identified,Technical,006f100000d7iTZAAY,2019,-1.80494,29.30232,6052,12181
Rwanda - Rukenesha-nyundo - 1013663,Rutsiro,Rukenesha-nyundo,1013663,Identified,,006f100000d7ia1AAA,2024,-1.876611,29.372199,1412,9778
Rwanda - Kamirabageni - 1014307,Kamonyi,Kamirabageni,1014307,Identified,Technical,006f100000eelvwAAA,2019,-2.08754,29.94017,8025,5425
Rwanda - Kasherangabo - 1014351,Ngoma,Kasherangabo,1014351,Identified,Technical,006f100000eeuunAAA,2019,-2.1344,30.53379,12039,6723
Rwanda - Rugazi - 1014352,Ngoma,Rugazi,1014352,Identified,Technical,006f100000eeuusAAA,2019,-2.068,30.57965,9156,3493
Rwanda - Mbuga Kwa Habuhazi - 1012957,Muhanga,Mbuga Kwa Habuhazi,1012957,Identified,Technical,006f100000d6wCIAAY,2018,-1.78470369,29.68177755,1631,7716
Rwanda - Ingirakamaro - 1013730,Gisagara,Ingirakamaro,1013730,Identified,Technical,006f100000d7jI8AAI,2019,-2.57166,29.78138,2751,10642
Rwanda - Rwamihuro - 1014378,Ngoma,Rwamihuro,1014378,Identified,Technical,006f100000eeuyGAAQ,2019,-2.103568,30.57552,8714,4895
Rwanda - Murujanjara - 1014392,Nyagatare,Murujanjara,1014392,Identified,Technical,006f100000eeuzdAAA,2019,-1.393255,30.162868,1942,6287
Rwanda - Matereza - 1014415,Nyagatare,Matereza,1014415,Identified,Technical,006f100000eev1ZAAQ,2019,-1.36087,30.181669,6782,5095
Rwanda - Nyarubande - 1014445,Kicukiro,Nyarubande,1014445,Identified,Technical,006f100000eevMuAAI,2019,-1.968372,30.112113,18340,88189
Rwanda - Nyakirehe - 1014448,Gasabo,Nyakirehe,1014448,Identified,Technical,006f100000eevNxAAI,2019,-1.836888,30.07574,819,7151
Rwanda - Nyabununi - 1013542,Karongi,Nyabununi,1013542,Identified,Requested,006f100000d7aylAAA,2019,-2.13809,29.4254,2923,3551
Rwanda - Bitaba - 1013924,Rusizi,Bitaba,1013924,Identified,Technical,006f100000d8AoyAAE,2019,-2.55713,28.92587,3092,5325
Rwanda - Ruhigiro - 1013375,Nyabihu,Ruhigiro,1013375,Identified,Technical,006f100000d7GrtAAE,2019,-1.65254,29.4929,1320,11292
Rwanda - Kigabiro 1 - 1014332,Kamonyi,Kigabiro 1,1014332,Identified,Technical,006f100000eesitAAA,2019,-1.964977,29.975556,3963,7411
Rwanda - Kwarasita - 1012809,Muhanga,Kwarasita,1012809,Identified,,006f100000d6kstAAA,2023,-1.92495,29.78201,2101,4119
Rwanda - Karenge - 1013752,Rulindo,Karenge,1013752,Identified,Technical,006f100000d7kmJAAQ,2019,-1.83068,29.90837,2772,5884
Rwanda - Kwa Munyarubuga - 1013255,Muhanga,Kwa Munyarubuga,1013255,Identified,,006f100000d761uAAA,2018,-1.87302569,29.67017014,3103,6569
Rwanda - Munazi - 1013260,Muhanga,Munazi,1013260,Identified,Technical,006f100000d762JAAQ,2018,-2.01273958,29.69851613,2581,6043
Rwanda - Zigati - 1013424,Nyamagabe,Zigati,1013424,Identified,Technical,006f100000d7JDWAA2,2018,-2.39188167,29.52233833,2136,2976
Rwanda - Gaseke - 1013726,Gisagara,Gaseke,1013726,Identified,Technical,006f100000d7jHKAAY,2019,-2.59415,29.77829,3182,11454
Rwanda - Nyamapfunda - 1013507,Huye,Nyamapfunda,1013507,Identified,Technical,006f100000d7QQnAAM,2019,-2.63352,29.62583,2832,5749
Rwanda - Nyabirehe~ Nyarubande - 1013466,Musanze,Nyabirehe~ Nyarubande,1013466,Identified,Technical,006f100000d7Q57AAE,2019,-1.548732,29.515524,7753,7823
Rwanda - Rufugwe - 1013472,Musanze,Rufugwe,1013472,Identified,Technical,006f100000d7Q5bAAE,2019,-1.543877,29.546123,5767,15657
Rwanda - Tububuro - 1013611,Nyamagabe,Tububuro,1013611,Identified,Technical,006f100000d7gjeAAA,2019,-2.59941667,29.56459167,2579,2537
Rwanda - Bukane - 1013343,Musanze,Bukane,1013343,Identified,Technical,006f100000d7EVdAAM,2019,-1.497265,29.616601,6321,20800
Rwanda - Ku mbuga ya 2 - 1013839,Kayonza,Ku mbuga ya 2,1013839,Identified,Technical,006f100000d7xzVAAQ,2019,-2.01757,30.48546,37321,2761
Rwanda - Matyazo - 1013369,Nyabihu,Matyazo,1013369,Identified,Technical,006f100000d7GrPAAU,2019,-1.64694,29.47735,4288,9686
Rwanda - Manjanja - 1013643,Rutsiro,Manjanja,1013643,Identified,Technical,006f100000d7iVLAAY,2019,-1.91805,29.43911,1373,5397
Rwanda - Nyakagezi-kariba - 1013655,Rutsiro,Nyakagezi-kariba,1013655,Identified,Technical,006f100000d7iXgAAI,2019,-1.84493,29.34447,635,6316
Rwanda - Kabingo - 1013601,Gakenke,Kabingo,1013601,Identified,Technical,006f100000d7cnFAAQ,2019,-1.73099,29.87352,1250,6828
Rwanda - Nyamiyaga - 1013577,Gisagara,Nyamiyaga,1013577,Identified,Technical,006f100000d7bAWAAY,2019,-2.52882,29.82786,1706,4778
Rwanda - Kamubuga - 1013684,Gakenke,Kamubuga,1013684,Identified,Technical,006f100000d7ieXAAQ,2019,-1.61659,29.7064,1400,8621
Rwanda - Gikombe - 1013707,Kayonza,Gikombe,1013707,Identified,Technical,006f100000d7jDNAAY,2019,-2.0901,30.65996,1603,4322
Rwanda - Ngoboka - 1013917,Rusizi,Ngoboka,1013917,Identified,Technical,006f100000d8AjZAAU,2019,-2.54047,28.95991,1753,8771
Rwanda - Munkamba - 1014025,Rusizi,Munkamba,1014025,Identified,Technical,006f100000d1f3lAAA,2019,-2.566146,29.144802,1403,2473
Rwanda - Nyabikeri - 1014031,Karongi,Nyabikeri,1014031,Complete,In Service,006f100000d1fMsAAI,2021,-2.209275,29.47145,4001,3755
Rwanda - Wamahoro - 1014068,Karongi,Wamahoro,1014068,Identified,Requested,006f100000d1fTAAAY,2023,-2.143712,29.352145,3341,18846
Rwanda - Rusuzuma - 1013320,Burera,Rusuzuma,1013320,Identified,Technical,006f100000d7EQdAAM,2018,-1.49763,29.80603,3880,6703
Rwanda - Nyabutaka - 1014084,Rusizi,Nyabutaka,1014084,Identified,Vehicular Bridge Required,006f100000d1fUmAAI,2019,-2.57067,29.02658,965,10453
Rwanda - Nkanga - 1014085,Rusizi,Nkanga,1014085,Identified,Technical,006f100000d1fUrAAI,2019,-2.57161,29.03953,42778,11352
Rwanda - Kabingo1 - 1014099,Rusizi,Kabingo1,1014099,Complete,In Service,006f100000d1fWJAAY,2023,-2.588367,29.095324,6500,2920
Rwanda - Mujebeshi - 1013629,Rutsiro,Mujebeshi,1013629,Identified,Technical,006f100000d7iQuAAI,2019,-1.92009,29.46229,1561,5809
Rwanda - Kavumbu - 1013029,Nyabihu,Kavumbu,1013029,Complete,In Service,006f100000d6yLbAAI,2022,-1.67069,29.46836,3981,5622
Rwanda - Gasumo - 1013501,Burera,Gasumo,1013501,Identified,Technical,006f100000d7QAGAA2,2019,-1.33816,29.81862,2889,5274
Rwanda - Rwega - 1014165,Rusizi,Rwega,1014165,Identified,Vehicular Bridge Required,006f100000d1hTiAAI,2019,-2.4334,28.93374,750,11201
Rwanda - Buhaza - 1013012,Nyanza,Buhaza,1013012,Identified,Technical,006f100000d6wRkAAI,2018,-2.33834,29.84104,7973,3863
Rwanda - Cyeru - 1013281,Nyamagabe,Cyeru,1013281,Identified,,006f100000d78O6AAI,2024,-2.363741,29.544103,2222,3722
Rwanda - Gitikirema-kigarama - 1012817,Nyamagabe,Gitikirema-kigarama,1012817,Complete,In Service,006f100000d6kxFAAQ,2020,-2.304674,29.472585,2805,3890
Rwanda - Gikokwe - 1013789,Gakenke,Gikokwe,1013789,Identified,Technical,006f100000d7wulAAA,2019,-1.67796,29.70261,1100,6866
Rwanda - Gasharu - 1013813,Gisagara,Gasharu,1013813,Identified,Technical,006f100000d7x5yAAA,2019,-2.7045,29.75324,5282,7653
Rwanda - Bisomera - 1013595,Rutsiro,Bisomera,1013595,Identified,Technical,006f100000d7capAAA,2018,-1.9233,29.469722,1394,5548
Rwanda - Nkamba - 1012805,Nyamagabe,Nkamba,1012805,Identified,Technical,006f100000d6krYAAQ,2018,-2.42504833,29.42907333,1390,6313
Rwanda - Kabiraho - 1012814,Rutsiro,Kabiraho,1012814,Identified,Technical,006f100000d6kvYAAQ,2018,-1.9775,29.385,2458,6347
Rwanda - Kiriza - 1013453,Ngororero,Kiriza,1013453,Identified,Technical,006f100000d7PqrAAE,2019,-2.03409,29.63099,5519,5105
Rwanda - Rwasare - 1012545,Ngororero,Rwasare,1012545,Identified,Technical,006f100000dhpCbAAI,2018,-1.93678,29.63541,1750,8221
Rwanda - Karuhura ADPR - 1012540,Rulindo,Karuhura ADPR,1012540,Identified,Technical,006f100000dhmUvAAI,2018,-1.70683,29.91433,1778,7298
Rwanda - Nyamigina - 1012547,Ruhango,Nyamigina,1012547,Identified,Technical,006f100000dhpDZAAY,2018,-2.18874,29.69027,2008,4681
Rwanda - Buterana - 1012548,Ruhango,Buterana,1012548,Identified,Technical,006f100000dhpDeAAI,2019,-2.18748,29.81693,3241,6044
Rwanda - Nyarubande - 1012546,Ngororero,Nyarubande,1012546,Identified,Technical,006f100000dhpCgAAI,2018,-1.88360333,29.62528667,1923,7219
Rwanda - Gasovu - 1012544,Ngororero,Gasovu,1012544,Identified,Technical,006f100000dhpCWAAY,2018,-1.88597,29.651,3850,6259
Rwanda - Gitenga - 1012549,Gakenke,Gitenga,1012549,Identified,Technical,006f100000dhpEhAAI,2018,-1.668055556,29.80361111,4500,6741
Rwanda - Banga - 1012550,Gakenke,Banga,1012550,Identified,Requested,006f100000dhpEmAAI,2024,-1.6897222,29.80888,600,6569
Rwanda - Gasumo - 1012543,Ngororero,Gasumo,1012543,Identified,Technical,006f100000dhpCRAAY,2018,-1.88597,29.65868,2162,6515
Rwanda - Ku mashuri ya Rushara - 1012972,Burera,Ku mashuri ya Rushara,1012972,Identified,Technical,006f100000d6wFbAAI,2018,-1.55437,29.85284,2789,6426
Rwanda - Sovu - 1013225,Nyamagabe,Sovu,1013225,Complete,In Service,006f100000d75zUAAQ,2022,-2.510714,29.53571,3540,4140
Rwanda - Ku gatare - 1013228,Burera,Ku gatare,1013228,Identified,Technical,006f100000d75zjAAA,2018,-1.55931,29.88196,3390,6213
Rwanda - Rugarama - 1013236,Burera,Rugarama,1013236,Identified,Technical,006f100000d760NAAQ,2018,-1.59631,29.85719,3054,6370
Rwanda - Gatura - 1013248,Muhanga,Gatura,1013248,Identified,Technical,006f100000d761LAAQ,2018,-2.0118896,29.68145493,2923,5857
Rwanda - Zihare - 1013316,Burera,Zihare,1013316,Identified,Technical,006f100000d7EPzAAM,2018,-1.50342,29.95362,4869,8801
Rwanda - Buzaniro - 1013317,Burera,Buzaniro,1013317,Identified,Technical,006f100000d7EQ9AAM,2018,-1.50145,29.95181,1434,8751
Rwanda - Mushubi - 1013322,Burera,Mushubi,1013322,Identified,Technical,006f100000d7ER7AAM,2018,-1.52982,29.85156,6566,7418
Rwanda - Burindwa - 1013324,Burera,Burindwa,1013324,Identified,Technical,006f100000d7ERvAAM,2018,-1.50887,29.84577,4393,7578
Rwanda - Kwa rangira - 1013328,Burera,Kwa rangira,1013328,Identified,Vehicular Bridge Required,006f100000d7ESjAAM,2018,-1.59045,29.93291,762,8243
Rwanda - Kumusenyi - 1013796,Gakenke,Kumusenyi,1013796,Identified,Technical,006f100000d7wvKAAQ,2019,-1.5905,29.7052,1400,10471
Rwanda - Nyarukurazo - 1013804,Gisagara,Nyarukurazo,1013804,Identified,Technical,006f100000d7x5AAAQ,2019,-2.7242,29.75411,3437,6574
Rwanda - Nyarunyinya - 1013810,Gisagara,Nyarunyinya,1013810,Identified,Technical,006f100000d7x5jAAA,2019,-2.7234,29.76373,2631,6681
Rwanda - Kinamba - 1013378,Nyabihu,Kinamba,1013378,Identified,,006f100000d7Gs8AAE,2024,-1.65625,29.42217,2133,12740
Rwanda - Mucaca - 1013387,Nyabihu,Mucaca,1013387,Identified,Technical,006f100000d7GsrAAE,2018,-1.62606,29.60041,,7634
Rwanda - Bushekeri~ kamina - 1014010,Nyamasheke,Bushekeri~ kamina,1014010,Identified,,006f100000d1f2OAAQ,2019,-2.401338,29.092203,6637,5469
Rwanda - Isha - 1014017,Rusizi,Isha,1014017,Identified,Vehicular Bridge Required,006f100000d1f37AAA,2019,-2.452429,28.938735,565,8718
Rwanda - Basesa - 1014046,Rubavu,Basesa,1014046,Identified,Technical,006f100000d1fOKAAY,2019,-1.73024,29.36502,1440,10103
Rwanda - Nyabisiga - 1014049,Karongi,Nyabisiga,1014049,Identified,Technical,006f100000d1fOtAAI,2019,-2.153882,29.506953,1836,5941
Rwanda - Rukore - 1014055,Karongi,Rukore,1014055,Identified,Technical,006f100000d1fPmAAI,2019,-2.17259,29.40382,2606,2865
Rwanda - Gitwa - 1014062,Karongi,Gitwa,1014062,Identified,Technical,006f100000d1fSbAAI,2019,-2.242973,29.464718,1703,3365
Rwanda - Nyabutagwa-gaseke - 1014096,Rusizi,Nyabutagwa-gaseke,1014096,Identified,Vehicular Bridge Required,006f100000d1fVzAAI,2019,-2.55317,28.99986,968,8109
Rwanda - Nyagatovu - 1014490,Ngoma,Nyagatovu,1014490,Identified,Technical,006f100000ef7XtAAI,2019,-2.117773,30.607615,10639,4478
Rwanda - Muturirwa - 1013002,Nyanza,Muturirwa,1013002,Identified,Technical,006f100000d6wQXAAY,2018,-2.26129,29.74834,3723,6266
Rwanda - Rufungo - 1013630,Rutsiro,Rufungo,1013630,Identified,Technical,006f100000d7iR9AAI,2019,-1.92623,29.44603,1378,5862
Rwanda - Rucamahembe2 - 1013637,Rutsiro,Rucamahembe2,1013637,Identified,Technical,006f100000d7iTAAAY,2019,-1.81635,29.29171,850,9525
Rwanda - Ngoma - 1013836,Kayonza,Ngoma,1013836,Identified,Vehicular Bridge Required,006f100000d7xv4AAA,2019,-2.05688,30.59736,3134,2924
Rwanda - Nyagatango - 1014109,Rusizi,Nyagatango,1014109,Identified,Technical,006f100000d1fkBAAQ,2019,-2.58868,29.11247,2780,3257
Rwanda - Karambi - 1012833,Nyanza,Karambi,1012833,Identified,Technical,006f100000d6mYQAAY,2018,-2.34876,29.68835,3637,3895
Rwanda - Kwiterambere - 1013678,Gakenke,Kwiterambere,1013678,Complete,In Service,006f100000d7icgAAA,2021,-1.66344,29.83439,1530,6900
Rwanda - Rusenyi - 1013685,Gakenke,Rusenyi,1013685,Identified,Technical,006f100000d7iecAAA,2019,-1.62252,29.70826,1550,8670
Rwanda - Kabuye - 1013481,Musanze,Kabuye,1013481,Identified,Vehicular Bridge Required,006f100000d7Q6KAAU,2019,-1.577664,29.654812,567,8855
Rwanda - Ku mashuri ya GSNDM Carmel Gahunga - 1013488,Burera,Ku mashuri ya GSNDM Carmel Gahunga,1013488,Identified,Technical,006f100000d7Q9DAAU,2019,-1.45014,29.67945,3119,14835
Rwanda - Nyarubuye - 1013497,Burera,Nyarubuye,1013497,Identified,Technical,006f100000d7Q9wAAE,2019,-1.46659,29.74716,1519,7878
Rwanda - Kwa ntawitonderisi - 1013500,Burera,Kwa ntawitonderisi,1013500,Identified,Vehicular Bridge Required,006f100000d7QABAA2,2019,-1.46061,29.74088,1241,9613
Rwanda - Rwamiko~Gitwa - 1013699,Nyamasheke,Rwamiko~Gitwa,1013699,Identified,Technical,006f100000d7jCAAAY,2019,-2.286079,29.17952,8374,6419
Rwanda - Kivumu - 1013725,Gisagara,Kivumu,1013725,Identified,Technical,006f100000d7jHFAAY,2019,-2.59149,29.75931,2477,22342
Rwanda - Wagati - 1013876,Karongi,Wagati,1013876,Identified,Technical,006f100000d889yAAA,2019,-2.18942,29.507745,1646,3637
Rwanda - Kizenga 1 - 1013887,Nyamasheke,Kizenga 1,1013887,Identified,Technical,006f100000d88EyAAI,2019,-2.233859,29.250362,1408,4345
Rwanda - Gahira 1 - 1013902,Nyamasheke,Gahira 1,1013902,Identified,Technical,006f100000d88PDAAY,2019,-2.442198,29.203302,7032,5095
Rwanda - Kanyege - 1013419,Nyamagabe,Kanyege,1013419,Identified,Technical,006f100000d7JCxAAM,2018,-2.396595,29.549835,2530,3539
Rwanda - Gisiza - 1013551,Karongi,Gisiza,1013551,Identified,Technical,006f100000d7azeAAA,2019,-2.11251,29.41945,4353,5187
Rwanda - Rwamuzenga - 1013575,Gisagara,Rwamuzenga,1013575,Identified,Technical,006f100000d7bAMAAY,2019,-2.49883,29.927,3359,4017
Rwanda - Gahuru - 1013580,Gisagara,Gahuru,1013580,Identified,Technical,006f100000d7bAqAAI,2019,-2.50934,29.90858,4404,4653
Rwanda - Kanyovu - 1013916,Rusizi,Kanyovu,1013916,Identified,Technical,006f100000d8AjKAAU,2019,-2.55346,28.95224,2905,8064
Rwanda - Gisuma - 1013919,Gisagara,Gisuma,1013919,Identified,Technical,006f100000d8Ao5AAE,2019,-2.70557,29.89536,2563,5360
Rwanda - Kubateri - 1013009,Nyanza,Kubateri,1013009,Identified,Technical,006f100000d6wRQAAY,2018,-2.39148,29.69369,3704,4288
Rwanda - Gatare2 - 1013314,Musanze,Gatare2,1013314,Identified,Technical,006f100000d7EMXAA2,2019,-1.576444,29.728154,1114,8791
Rwanda - Gasenge - 1013217,Nyamagabe,Gasenge,1013217,Identified,Technical,006f100000d75uwAAA,2018,-2.53568,29.5136,3243,4894
Rwanda - Kwa magorwa - 1013229,Burera,Kwa magorwa,1013229,Identified,Technical,006f100000d75zoAAA,2018,-1.59194,29.89186,1709,6676
Rwanda - Kwa Rwanziye - 1013238,Burera,Kwa Rwanziye,1013238,Identified,Technical,006f100000d760XAAQ,2018,-1.60708,29.85897,2451,6941
Rwanda - Kidomo - 1013246,Burera,Kidomo,1013246,Identified,Technical,006f100000d761BAAQ,2019,-1.56507,29.83916,0,6126
Rwanda - Mu  Gisuma - 1013257,Muhanga,Mu  Gisuma,1013257,Identified,Technical,006f100000d7624AAA,2018,-1.81917977,29.69307801,2959,6635
Rwanda - Mamashenge - 1013273,Nyanza,Mamashenge,1013273,Prospecting,,006f100000d766yAAA,2023,-2.304653,29.79009,,6150
Rwanda - Marongi - 1013274,Nyanza,Marongi,1013274,Identified,Technical,006f100000d7673AAA,2023,-2.30781,29.81484,6724,5759
Rwanda - Ruhunde - 1012956,Muhanga,Ruhunde,1012956,Complete,In Service,006f100000d6wCDAAY,2023,-1.77785489,29.67587526,2851,6892
Rwanda - Kinaba-Subukiniro - 1012993,Nyamagabe,Kinaba-Subukiniro,1012993,Identified,Technical,006f100000d6wNeAAI,2018,-2.48689,29.416145,4502,3715
Rwanda - Karambo-Twiya 1 - 1012994,Nyamagabe,Karambo-Twiya 1,1012994,Identified,Technical,006f100000d6wNjAAI,2018,-2.37318833,29.42095333,3607,8016
Rwanda - Kibuye - 1013745,Rulindo,Kibuye,1013745,Identified,Technical,006f100000d7kfSAAQ,2019,-1.64805,30.01587,4343,7820
Rwanda - Rugarama1 - 1014293,Kamonyi,Rugarama1,1014293,Identified,,006f100000eekhFAAQ,2024,-2.109614,29.84785,3107,5170
Rwanda - Bunyonga 1 - 1014322,Kamonyi,Bunyonga 1,1014322,Complete,In Service,006f100000eesd5AAA,2023,-1.934919,29.819397,2423,6023
Rwanda - Karama - 1014325,Kamonyi,Karama,1014325,Identified,Technical,006f100000eesdPAAQ,2019,-1.980126,29.905502,4804,6864
Rwanda - Mukinyogo - 1013280,Nyamagabe,Mukinyogo,1013280,Identified,Vehicular Bridge Required,006f100000d78NrAAI,2018,,,650,
Rwanda - Gitega - 1013283,Nyamagabe,Gitega,1013283,Identified,Technical,006f100000d78OGAAY,2018,-2.335233,29.499042,2445,2782
Rwanda - Gafukuru - 1013287,Nyamagabe,Gafukuru,1013287,Identified,Technical,006f100000d78OfAAI,2018,-2.331309,29.535533,3130,3850
Rwanda - RunyanjaII - 1013372,Nyabihu,RunyanjaII,1013372,Identified,Technical,006f100000d7GreAAE,2018,-1.61142,29.47289,4855,11980
Rwanda - RunyanjaI - 1013373,Nyabihu,RunyanjaI,1013373,Identified,Technical,006f100000d7GrjAAE,2018,-1.60836,29.47061,2887,11146
Rwanda - Busasamana - 1013382,Nyabihu,Busasamana,1013382,Identified,Technical,006f100000d7GsSAAU,2018,-1.61593,29.45548,1678,14326
Rwanda - Kabahendanyi - 1013383,Nyabihu,Kabahendanyi,1013383,Identified,Vehicular Bridge Required,006f100000d7GsXAAU,2019,-1.62433,29.59547,1064,8189
Rwanda - Nyagacyamo - 1013828,Kayonza,Nyagacyamo,1013828,Identified,Technical,006f100000d7xpLAAQ,2019,-1.9592,30.47838,3189,3514
Rwanda - Nyamata - 1013835,Kayonza,Nyamata,1013835,Identified,Technical,006f100000d7xuzAAA,2019,-2.04215,30.67317,39670,2443
Rwanda - Buhoro - 1012801,Nyamagabe,Buhoro,1012801,Identified,Technical,006f100000d6kr9AAA,2018,-2.4418,29.44929833,1150,5944
Rwanda - Nyagahandagaza - 1014367,Ngoma,Nyagahandagaza,1014367,Identified,Technical,006f100000eeuwUAAQ,2019,-2.1755,30.40085,10440,3677
Rwanda - Misange - 1014379,Ngoma,Misange,1014379,Identified,Technical,006f100000eeuyLAAQ,2019,-2.0921133,30.585332,8628,3925
Rwanda - Kagumiro - 1014380,Ngoma,Kagumiro,1014380,Identified,Technical,006f100000eeuyfAAA,2019,-2.107592,30.609893,10222,4443
Rwanda - Kabimba - 1014381,Ngoma,Kabimba,1014381,Identified,Technical,006f100000eeuykAAA,2019,-2.165545,30.549758,14274,10934
Rwanda - Marembo - 1014382,Ngoma,Marembo,1014382,Identified,Technical,006f100000eeuypAAA,2019,-2.160985,30.551312,10352,12126
Rwanda - Kajevuba - 1014398,Nyagatare,Kajevuba,1014398,Identified,Vehicular Bridge Required,006f100000eev07AAA,2019,-1.442804,30.274319,1,6870
Rwanda - Kagogo - 1014399,Nyagatare,Kagogo,1014399,Identified,Vehicular Bridge Required,006f100000eev0CAAQ,2019,-1.471113,30.285693,1,5952
Rwanda - Cyeru - 1014426,Ngoma,Cyeru,1014426,Identified,Technical,006f100000eev4OAAQ,2019,-2.201705,30.60411,7812,3976
Rwanda - Tangata - 1013323,Burera,Tangata,1013323,Identified,Technical,006f100000d7ERlAAM,2018,-1.51042,29.8463,3991,7525
Rwanda - Gasasa~ mutuntu - 1013891,Nyamasheke,Gasasa~ mutuntu,1013891,Identified,Technical,006f100000d88IMAAY,2019,-2.392599,29.239326,3697,4958
Rwanda - Nyamiheha - 1013893,Nyamasheke,Nyamiheha,1013893,Identified,Technical,006f100000d88IWAAY,2019,-2.210267,29.263236,2698,6706
Rwanda - Kanyinya - 1013423,Nyamagabe,Kanyinya,1013423,Identified,Technical,006f100000d7JDMAA2,2018,-2.374415,29.51966667,3246,2479
Rwanda - Kansoro - 1013477,Musanze,Kansoro,1013477,Identified,,006f100000d7Q60AAE,2024,-1.446965,29.616203,,11440
Rwanda - Resume (kwa Frederick) - 1013484,Burera,Resume (kwa Frederick),1013484,Identified,Technical,006f100000d7Q8jAAE,2019,-1.37445,29.80846,1892,8195
Rwanda - Ryabidandi - 1013614,Nyaruguru,Ryabidandi,1013614,Identified,Technical,006f100000d7hE8AAI,2019,-2.74995333,29.62531333,4794,6697
Rwanda - Barage - 1013622,Kayonza,Barage,1013622,Identified,Technical,006f100000d7iJPAAY,2019,-1.95152,30.59912,2969,3580
Rwanda - Ruhengeri 2 - 1013633,Rutsiro,Ruhengeri 2,1013633,Identified,Technical,006f100000d7iRnAAI,2018,-1.88027,29.34277,519,9162
Rwanda - Kamaranzara - 1013648,Rutsiro,Kamaranzara,1013648,Identified,Requested,006f100000d7iWdAAI,2018,-1.83944,29.3222,1131,10953
Rwanda - Rugamba - 1013659,Rutsiro,Rugamba,1013659,Identified,Technical,006f100000d7iYjAAI,2018,-1.8777,29.3219444,1348,9566
Rwanda - Gitaba - 1013547,Ngororero,Gitaba,1013547,Identified,Technical,006f100000d7azKAAQ,2019,-1.77412,29.57416,4606,7243
Rwanda - Nyarutovu 2 - 1013682,Gakenke,Nyarutovu 2,1013682,Identified,Technical,006f100000d7ieDAAQ,2019,-1.68267,29.67093,892,9360
Rwanda - Nyabutaka kwamuvara - 1013689,Gakenke,Nyabutaka kwamuvara,1013689,Identified,Technical,006f100000d7ifGAAQ,2019,-1.66377,29.80285,1510,6903
